---
:groups:
- :group: A
  :teams:
  - :name: Brazil
    :players:
    - :position: Goalkeeper
      :name: Júlio César
      :height: 73
      :weight: 175
      :birthdate: 09-03-1979
      :birthplace: Duque de Caxias, Brazil
      :current_club: Toronto FC (USA)
      :lat: "-22.7864231"
      :lon: "-43.3116494"
    - :position: Goalkeeper
      :name: Jefferson
      :height: 74
      :weight: 176
      :birthdate: 01-02-1983
      :birthplace: São Vicente, Brazil
      :current_club: Botafogo (Brazil)
      :lat: "-23.9603686"
      :lon: "-46.3847024"
    - :position: Goalkeeper
      :name: Victor
      :height: 76
      :weight: 185
      :birthdate: 01-21-1983
      :birthplace: Santo Anastácio, Brazil
      :current_club: Atletico Mineiro (Brazil)
      :lat: "-21.974662"
      :lon: "-51.652662"
    - :position: Defender
      :name: Dani Alves
      :height: 68
      :weight: 141
      :birthdate: 05-06-1983
      :birthplace: Juazeiro, Brazil
      :current_club: Barcelona (Spain)
      :lat: "-9.4204382"
      :lon: "-40.4972925"
    - :position: Defender
      :name: Maicon
      :height: 72
      :weight: 170
      :birthdate: 07-26-1981
      :birthplace: Novo Hamburgo, Brazil
      :current_club: AS Roma (Italy)
      :lat: "-29.6905705"
      :lon: "-51.1429035"
    - :position: Defender
      :name: Marcelo
      :height: 68
      :weight: 161
      :birthdate: 05-12-1988
      :birthplace: Rio de Janeiro, Brazil
      :current_club: Real Madrid (Spain)
      :lat: "-22.9112163"
      :lon: "-43.2093781"
    - :position: Defender
      :name: Maxwell
      :height: 69
      :weight: 161
      :birthdate: 08-27-1981
      :birthplace: Cachoeiro de Itapermirim, Brazil
      :current_club: Paris Saint-Germain (France)
      :lat: 
      :lon: 
    - :position: Defender
      :name: Thiago Silva
      :height: 72
      :weight: 174
      :birthdate: 09-22-1984
      :birthplace: Rio de Janeiro, Brazil
      :current_club: Paris Saint-Germain (France)
      :lat: "-22.9112163"
      :lon: "-43.2093781"
    - :position: Defender
      :name: David Luiz
      :height: 73
      :weight: 161
      :birthdate: 04-22-1987
      :birthplace: Diadema, Brazil
      :current_club: Chelsea (England)
      :lat: "-23.681347"
      :lon: "-46.62052"
    - :position: Defender
      :name: Dante
      :height: 74
      :weight: 192
      :birthdate: 10-18-1983
      :birthplace: Salvador, Brazil
      :current_club: Bayern Munich (Germany)
      :lat: "-12.9816356"
      :lon: "-38.4820771"
    - :position: Defender
      :name: Henrique
      :height: 75
      :weight: 172
      :birthdate: 10-14-1986
      :birthplace: Marechal Cândido Rôndon, Brazil
      :current_club: Napoli (Italy)
      :lat: "-24.5570477"
      :lon: "-54.0571457"
    - :position: Midfielder
      :name: Luiz Gustavo
      :height: 73
      :weight: 176
      :birthdate: 07-23-1987
      :birthplace: Pindamonhangaba, Brazil
      :current_club: Wolfsburg (Germany)
      :lat: "-22.9238943"
      :lon: "-45.4616763"
    - :position: Midfielder
      :name: Hernanes
      :height: 71
      :weight: 168
      :birthdate: 05-29-1985
      :birthplace: Recife, Brazil
      :current_club: Inter Milan (Italy)
      :lat: "-8.0581077"
      :lon: "-34.8979047"
    - :position: Midfielder
      :name: Paulinho
      :height: 72
      :weight: 156
      :birthdate: 07-25-1988
      :birthplace: São Paulo, Brazil
      :current_club: Tottenham Hotspur (England)
      :lat: "-21.9549806"
      :lon: "-49.0232348"
    - :position: Midfielder
      :name: Ramires
      :height: 70
      :weight: 143
      :birthdate: 03-24-1987
      :birthplace: Barra do Piraí, Brazil
      :current_club: Chelsea (England)
      :lat: "-22.4703422"
      :lon: "-43.8263236"
    - :position: Midfielder
      :name: Oscar
      :height: 70
      :weight: 145
      :birthdate: 09-09-1991
      :birthplace: Americana, Brazil
      :current_club: Chelsea (England)
      :lat: "-22.739177"
      :lon: "-47.3313864"
    - :position: Midfielder
      :name: Fernandinho
      :height: 69
      :weight: 148
      :birthdate: 05-04-1985
      :birthplace: Londrina, Brazil
      :current_club: Manchester City (England)
      :lat: "-23.3112878"
      :lon: "-51.1595023"
    - :position: Midfielder
      :name: Willian
      :height: 69
      :weight: 159
      :birthdate: 08-09-1988
      :birthplace: Ribeirão Pires, Brazil
      :current_club: Chelsea (England)
      :lat: "-23.7110754"
      :lon: "-46.414406"
    - :position: Forward
      :name: Hulk
      :height: 71
      :weight: 168
      :birthdate: 07-25-1986
      :birthplace: Campina Grande, Brazil
      :current_club: Zenit Saint Petersburg (Russia)
      :lat: "-7.221958"
      :lon: "-35.873144"
    - :position: Forward
      :name: Neymar
      :height: 69
      :weight: 132
      :birthdate: 02-05-1992
      :birthplace: Mogi das Cruzes, Brazil
      :current_club: Barcelona (Spain)
      :lat: "-23.5241172"
      :lon: "-46.1909469"
    - :position: Forward
      :name: Fred
      :height: 73
      :weight: 185
      :birthdate: 10-03-1983
      :birthplace: Teófilo Otoni, Brazil
      :current_club: Fluminense (Brazil)
      :lat: "-17.8575707"
      :lon: "-41.5076527"
    - :position: Forward
      :name: Jô
      :height: 74
      :weight: 154
      :birthdate: 03-20-1987
      :birthplace: São Paulo, Brazil
      :current_club: Atletico Mineiro (Brazil)
      :lat: "-21.9549806"
      :lon: "-49.0232348"
    - :position: Midfielder
      :name: Bernard
      :height: 66
      :weight: 139
      :birthdate: 09-08-1992
      :birthplace: Belo Horizonte, Brazil
      :current_club: Shakhtar Donetsk (Ukraine)
      :lat: "-19.9227318"
      :lon: "-43.9450948"
  - :name: Croatia
    :players:
    - :position: Goalkeeper
      :name: Stipe Pletikosa
      :height: 76
      :weight: 183
      :birthdate: 01-08-1979
      :birthplace: Split, Croatia
      :current_club: Rostov (Russia)
      :lat: '43.5115555'
      :lon: '16.4396801'
    - :position: Goalkeeper
      :name: Danijel Subasic
      :height: 75
      :weight: 187
      :birthdate: 10-27-1984
      :birthplace: Zadar, Croatia
      :current_club: AS Monaco (France)
      :lat: '44.1184333'
      :lon: '15.2324491'
    - :position: Goalkeeper
      :name: Oliver Zelenika
      :height: 75
      :weight: 
      :birthdate: 05-14-1993
      :birthplace: Zagreb, Croatia
      :current_club: Lokomotiva (Croatia)
      :lat: '45.8131545'
      :lon: '15.9770298'
    - :position: Defender
      :name: Igor Bubnjic
      :height: 74
      :weight: 
      :birthdate: 07-17-1992
      :birthplace: Split, Croatia
      :current_club: Udinese (Italy)
      :lat: '43.5115555'
      :lon: '16.4396801'
    - :position: Defender
      :name: Vedran Corluka
      :height: 75
      :weight: 176
      :birthdate: 02-05-1986
      :birthplace: Derventa, Bosnia and Herzegovina
      :current_club: Lokomovtiv Moscow (Russia)
      :lat: '44.9780452'
      :lon: '17.90734'
    - :position: Defender
      :name: Dejan Lovren
      :height: 74
      :weight: 185
      :birthdate: 07-05-1989
      :birthplace: Zenica, Bosnia and Herzegovina
      :current_club: Southampton (England)
      :lat: '44.200713'
      :lon: '17.9080954'
    - :position: Midfielder
      :name: Danijel Pranjic
      :height: 67
      :weight: 154
      :birthdate: 12-02-1981
      :birthplace: Nasice, Croatia
      :current_club: Panathinaikos (Greece)
      :lat: '45.4906159'
      :lon: '18.0928506'
    - :position: Defender
      :name: Gordon Schildenfeld
      :height: 75
      :weight: 201
      :birthdate: 03-18-1985
      :birthplace: "Šibenik, Croatia"
      :current_club: Panathinaikos (Greece)
      :lat: '43.7331716'
      :lon: '15.9002171'
    - :position: Defender
      :name: Darijo Srna
      :height: 72
      :weight: 172
      :birthdate: 05-01-1982
      :birthplace: Metkovic, Croatia
      :current_club: Shakhtar Donetsk (Ukraine)
      :lat: '43.0551448'
      :lon: '17.650014'
    - :position: Defender
      :name: Ivan Strinic
      :height: 73
      :weight: 172
      :birthdate: 07-17-1987
      :birthplace: Split, Croatia
      :current_club: Dnipro Dnipropetrovsk (Ukraine)
      :lat: '43.5115555'
      :lon: '16.4396801'
    - :position: Defender
      :name: Domagoj Vida
      :height: 72
      :weight: 154
      :birthdate: 04-29-1989
      :birthplace: Osijek, Croatia
      :current_club: Dynamo Kiev (Ukraine)
      :lat: '45.5540026'
      :lon: '18.6897053'
    - :position: Defender
      :name: Sime Vrsalijko
      :height: 71
      :weight: 165
      :birthdate: 01-10-1992
      :birthplace: Zadar, Croatia
      :current_club: Genoa (Italy)
      :lat: '44.1184333'
      :lon: '15.2324491'
    - :position: Midfielder
      :name: Milan Badelj
      :height: 73
      :weight: 168
      :birthdate: 02-25-1989
      :birthplace: Zagreb, Croatia
      :current_club: Hamburg (Germany)
      :lat: '45.8131545'
      :lon: '15.9770298'
    - :position: Midfielder
      :name: Marcelo Brozovic
      :height: 71
      :weight: 
      :birthdate: 11-16-1992
      :birthplace: Zagreb, Croatia
      :current_club: Dynamo Zagreb (Croatia)
      :lat: '45.8131545'
      :lon: '15.9770298'
    - :position: Midfielder
      :name: Ivo Ilicevic
      :height: 69
      :weight: 139
      :birthdate: 11-14-1986
      :birthplace: Aschaffenburg, Germany
      :current_club: Hamburg (Germany)
      :lat: '49.9739001'
      :lon: '9.1491699'
    - :position: Midfielder
      :name: Mateo Kovacic
      :height: 71
      :weight: 165
      :birthdate: 05-06-1994
      :birthplace: Linz, Austria
      :current_club: Inter Milan (Italy)
      :lat: '48.3058789'
      :lon: '14.2865628'
    - :position: Midfielder
      :name: Niko Kranjcar
      :height: 73
      :weight: 176
      :birthdate: 08-13-1984
      :birthplace: Zagreb, Croatia
      :current_club: Queens Park Rangers (England)
      :lat: '45.8131545'
      :lon: '15.9770298'
    - :position: Midfielder
      :name: Ivan Mocinic
      :height: 71
      :weight: 
      :birthdate: 04-30-1993
      :birthplace: Rijeka, Croatia
      :current_club: Rijeka (Croatia)
      :lat: '45.3271115'
      :lon: '14.4413555'
    - :position: Midfielder
      :name: Luka Modric
      :height: 68
      :weight: 143
      :birthdate: 09-09-1985
      :birthplace: Zadar, Croatia
      :current_club: Real Madrid (Spain)
      :lat: '44.1184333'
      :lon: '15.2324491'
    - :position: Midfielder
      :name: Mario Pasalic
      :height: 73
      :weight: 
      :birthdate: 02-09-1995
      :birthplace: Mainz, Germany
      :current_club: Hajduk Split (Croatia)
      :lat: '49.9999952'
      :lon: '8.2710237'
    - :position: Midfielder
      :name: Ivan Perisic
      :height: 73
      :weight: 163
      :birthdate: 02-02-1989
      :birthplace: Split, Croatia
      :current_club: Wolfsburg (Germany)
      :lat: '43.5115555'
      :lon: '16.4396801'
    - :position: Midfielder
      :name: Ivan Rakitic
      :height: 72
      :weight: 176
      :birthdate: 03-10-1988
      :birthplace: Rheinfelden, Switzerland
      :current_club: Sevilla (Spain)
      :lat: '47.56036295'
      :lon: '7.815402278187'
    - :position: Midfielder
      :name: Sammir
      :height: 70
      :weight: 170
      :birthdate: 04-23-1987
      :birthplace: Itabuna, Brazil
      :current_club: Getafe (Spain)
      :lat: "-14.787573"
      :lon: "-39.278056"
    - :position: Midfielder
      :name: Ognjen Vukojevic
      :height: 72
      :weight: 168
      :birthdate: 12-20-1983
      :birthplace: Bjelovar, Croatia
      :current_club: Dynamo Kiev (Ukraine)
      :lat: '45.8990121'
      :lon: '16.8424444'
    - :position: Forward
      :name: Duje Cop
      :height: 72
      :weight: 161
      :birthdate: 02-01-1990
      :birthplace: Vinkovci, Croatia
      :current_club: Dynamo Zagreb (Croatia)
      :lat: '45.2877429'
      :lon: '18.8005335'
    - :position: Forward
      :name: Eduardo
      :height: 71
      :weight: 161
      :birthdate: 02-25-1983
      :birthplace: Rio de Janeiro, Brazil
      :current_club: Shakhtar Donetsk (Ukraine)
      :lat: "-22.9112163"
      :lon: "-43.2093781"
    - :position: Forward
      :name: Nikica Jelavic
      :height: 74
      :weight: 194
      :birthdate: 08-27-1985
      :birthplace: Capljina, Bosnia and Herzegovina
      :current_club: Hull City (England)
      :lat: '43.1114824'
      :lon: '17.7024797'
    - :position: Forward
      :name: Mario Mandzukic
      :height: 74
      :weight: 185
      :birthdate: 05-21-1986
      :birthplace: Slavonski Brod, Croatia
      :current_club: Bayern Munich (Germany)
      :lat: '45.1713519'
      :lon: '18.01354'
    - :position: Forward
      :name: Ivica Olic
      :height: 72
      :weight: 187
      :birthdate: 09-14-1979
      :birthplace: Davor, Croatia
      :current_club: Wolfsburg (Germany)
      :lat: '45.1133914'
      :lon: '17.514995'
    - :position: Forward
      :name: Ante Rebic
      :height: 72
      :weight: 176
      :birthdate: 09-23-1993
      :birthplace: Split, Croatia
      :current_club: Fiorentina (Italy)
      :lat: '43.5115555'
      :lon: '16.4396801'
  - :name: Mexico
    :players:
    - :position: Goalkeeper
      :name: Guillermo Ochoa
      :height: 73
      :weight: 172
      :birthdate: 07-13-1985
      :birthplace: Guadalajara, Mexico
      :current_club: Ajaccio (France)
      :lat: '20.676143'
      :lon: "-103.3469982"
    - :position: Goalkeeper
      :name: Jesús Corona
      :height: 72
      :weight: 185
      :birthdate: 01-26-1981
      :birthplace: Guadalajara, Mexico
      :current_club: Cruz Azul (Mexico)
      :lat: '20.676143'
      :lon: "-103.3469982"
    - :position: Goalkeeper
      :name: Alfredo Talavera
      :height: 74
      :weight: 181
      :birthdate: 09-18-1982
      :birthplace: La Barca, Mexico
      :current_club: Toluca (Mexico)
      :lat: '20.2860699'
      :lon: "-102.5459147"
    - :position: Defender
      :name: Paul Aguilar
      :height: 70
      :weight: 143
      :birthdate: 03-06-1986
      :birthplace: Concordia, Mexico
      :current_club: Club America (Mexico)
      :lat: '18.286667'
      :lon: "-99.841944"
    - :position: Defender
      :name: Miguel Layún
      :height: 71
      :weight: 150
      :birthdate: 06-25-1988
      :birthplace: Córdoba, Mexico
      :current_club: Club America (Mexico)
      :lat: '18.8943999'
      :lon: "-96.9352059"
    - :position: Defender
      :name: Diego Reyes
      :height: 74
      :weight: 150
      :birthdate: 09-19-1992
      :birthplace: Mexico City, Mexico
      :current_club: FC Porto (Portugal)
      :lat: '19.4325301'
      :lon: "-99.1332102"
    - :position: Defender
      :name: Rafael Márquez
      :height: 73
      :weight: 183
      :birthdate: 02-13-1979
      :birthplace: Zamora, Mexico
      :current_club: Leon (Mexico)
      :lat: '20.0290767'
      :lon: "-102.271245052799"
    - :position: Defender
      :name: Francisco Javier Rodríguez
      :height: 75
      :weight: 176
      :birthdate: 10-20-1981
      :birthplace: Mazatlán, Mexico
      :current_club: Club America (Mexico)
      :lat: '23.2234374'
      :lon: "-106.4161919"
    - :position: Defender
      :name: Héctor Moreno
      :height: 73
      :weight: 179
      :birthdate: 01-17-1988
      :birthplace: Culiacán, Mexico
      :current_club: Espanyol (Spain)
      :lat: '24.8017193'
      :lon: "-107.3930507"
    - :position: Midfielder
      :name: Carlos Salcido
      :height: 69
      :weight: 165
      :birthdate: 04-02-1980
      :birthplace: Ocotlán, Mexico
      :current_club: Chivas de Guadalajara (Mexico)
      :lat: '20.3463624'
      :lon: "-102.7739778"
    - :position: Midfielder
      :name: Andrés Guardado
      :height: 66
      :weight: 132
      :birthdate: 09-28-1986
      :birthplace: Guadalajara, Mexico
      :current_club: Bayer Leverkusen (Germany)
      :lat: '20.676143'
      :lon: "-103.3469982"
    - :position: Midfielder
      :name: Jose Juan Vazquez
      :height: 65
      :weight: 150
      :birthdate: 03-14-1988
      :birthplace: Celaya, Mexico
      :current_club: Leon (Mexico)
      :lat: '20.5218353'
      :lon: "-100.8140016"
    - :position: Midfielder
      :name: Isaác Brizuela
      :height: 68
      :weight: 150
      :birthdate: 08-28-1990
      :birthplace: San Jose, CA, USA
      :current_club: Toluca (Mexico)
      :lat: '37.3438502'
      :lon: "-121.8831349"
    - :position: Midfielder
      :name: Luis Montes
      :height: 65
      :weight: 145
      :birthdate: 05-15-1986
      :birthplace: Ciudad Juarez, Mexico
      :current_club: Leon (Mexico)
      :lat: '31.7435143'
      :lon: "-106.4951525"
    - :position: Midfielder
      :name: Carlos Peña
      :height: 69
      :weight: 168
      :birthdate: 03-29-1990
      :birthplace: Ciudad Victoria, Mexico
      :current_club: Leon (Mexico)
      :lat: '23.7439573'
      :lon: "-99.1419341"
    - :position: Midfielder
      :name: Marco Fabián
      :height: 67
      :weight: 154
      :birthdate: 07-21-1989
      :birthplace: Guadalajara, Mexico
      :current_club: Cruz Azul (Mexico)
      :lat: '20.676143'
      :lon: "-103.3469982"
    - :position: Midfielder
      :name: Héctor Herrera
      :height: 71
      :weight: 163
      :birthdate: 04-19-1990
      :birthplace: Tijuana, Mexico
      :current_club: FC Porto (Portugal)
      :lat: '32.5344409'
      :lon: "-117.0393788"
    - :position: Forward
      :name: Raúl Jiménez
      :height: 73
      :weight: 168
      :birthdate: 05-05-1991
      :birthplace: Tepeji del Río Ocampo, Mexico
      :current_club: Club America (Mexico)
      :lat: 
      :lon: 
    - :position: Forward
      :name: Alan Pulido
      :height: 69
      :weight: 150
      :birthdate: 03-08-1991
      :birthplace: Ciudad Victoria, Mexico
      :current_club: Tigres (Mexico)
      :lat: '23.7439573'
      :lon: "-99.1419341"
    - :position: Forward
      :name: Javier Hernández
      :height: 69
      :weight: 137
      :birthdate: 06-01-1988
      :birthplace: Guadalajara, Mexico
      :current_club: Manchester United (England)
      :lat: '20.676143'
      :lon: "-103.3469982"
    - :position: Forward
      :name: Giovani dos Santos
      :height: 69
      :weight: 156
      :birthdate: 05-11-1989
      :birthplace: Monterrey, Mexico
      :current_club: Villareal (Spain)
      :lat: '25.6764922'
      :lon: "-100.3060829"
    - :position: Forward
      :name: Oribe Peralta
      :height: 71
      :weight: 159
      :birthdate: 01-12-1984
      :birthplace: Torreón, Mexico
      :current_club: Santos Laguna (Mexico)
      :lat: '25.5414662'
      :lon: "-103.4531977"
- :group: B
  :teams:
  - :name: Spain
    :players:
    - :position: Goalkeeper
      :name: Iker Casillas
      :height: 72
      :weight: 190
      :birthdate: 05-20-1981
      :birthplace: Móstoles, Spain
      :current_club: Real Madrid (Spain)
      :lat: '40.3238525'
      :lon: "-3.8649214"
    - :position: Goalkeeper
      :name: Pepe Reina
      :height: 74
      :weight: 203
      :birthdate: 08-31-1982
      :birthplace: Madrid, Spain
      :current_club: Napoli (Italy)
      :lat: '40.52516075'
      :lon: "-3.77181653956588"
    - :position: Goalkeeper
      :name: David de Gea
      :height: 75
      :weight: 181
      :birthdate: 11-07-1990
      :birthplace: Madrid, Spain
      :current_club: Manchester United (England)
      :lat: '40.52516075'
      :lon: "-3.77181653956588"
    - :position: Defender
      :name: Juanfran
      :height: 71
      :weight: 159
      :birthdate: 01-09-1985
      :birthplace: Crevillente, Spain
      :current_club: Atletico Madrid (Spain)
      :lat: '38.2493099'
      :lon: "-0.8111359"
    - :position: Defender
      :name: César Azpilicueta
      :height: 70
      :weight: 154
      :birthdate: 08-28-1989
      :birthplace: Pamplona, Spain
      :current_club: Chelsea (England)
      :lat: '42.8185502'
      :lon: "-1.6444165"
    - :position: Defender
      :name: Jordi Alba
      :height: 68
      :weight: 152
      :birthdate: 03-21-1989
      :birthplace: LHospitalet de Llobregat, Spain
      :current_club: Barcelona (Spain)
      :lat: '41.3566932'
      :lon: '2.1124479'
    - :position: Defender
      :name: Sergio Ramos
      :height: 72
      :weight: 179
      :birthdate: 03-30-1986
      :birthplace: Madrid, Spain
      :current_club: Real Madrid (Spain)
      :lat: '40.52516075'
      :lon: "-3.77181653956588"
    - :position: Defender
      :name: Gerard Piqué
      :height: 75
      :weight: 187
      :birthdate: 02-02-1987
      :birthplace: Barcelona, Spain
      :current_club: Barcelona (Spain)
      :lat: '41.3870186'
      :lon: '2.1700437'
    - :position: Defender
      :name: Raúl Albiol
      :height: 75
      :weight: 181
      :birthdate: 09-04-1985
      :birthplace: Villamarchante, Spain
      :current_club: Napoli (Italy)
      :lat: '39.5680723'
      :lon: "-0.6227531"
    - :position: Midfielder
      :name: Javi Martínez
      :height: 75
      :weight: 179
      :birthdate: 09-02-1988
      :birthplace: Estella, Spain
      :current_club: Bayern Munich (Germany)
      :lat: '42.66279655'
      :lon: "-2.02208407649766"
    - :position: Defender
      :name: Alberto Moreno
      :height: 67
      :weight: 143
      :birthdate: 07-05-1992
      :birthplace: Sevilla, Spain
      :current_club: Sevilla (Spain)
      :lat: '37.3887565'
      :lon: "-5.9947066"
    - :position: Midfielder
      :name: Sergio Busquets
      :height: 74
      :weight: 161
      :birthdate: 07-16-1988
      :birthplace: Sabadell, Spain
      :current_club: Barcelona (Spain)
      :lat: '41.5464208'
      :lon: '2.1087937'
    - :position: Midfielder
      :name: Xabi Alonso
      :height: 72
      :weight: 174
      :birthdate: 11-25-1981
      :birthplace: Tolosa, Spain
      :current_club: Real Madrid (Spain)
      :lat: '43.1386097'
      :lon: "-2.0723558"
    - :position: Midfielder
      :name: Xavi
      :height: 67
      :weight: 150
      :birthdate: 01-25-1980
      :birthplace: Terrassa, Spain
      :current_club: Barcelona (Spain)
      :lat: '41.5693302'
      :lon: '2.01345'
    - :position: Midfielder
      :name: Koke
      :height: 70
      :weight: 161
      :birthdate: 01-08-1992
      :birthplace: Madrid, Spain
      :current_club: Atletico Madrid (Spain)
      :lat: '40.52516075'
      :lon: "-3.77181653956588"
    - :position: Midfielder
      :name: Jesús Navas
      :height: 67
      :weight: 132
      :birthdate: 11-21-1985
      :birthplace: Los Palacios, Spain
      :current_club: Manchester City (England)
      :lat: '37.8936794'
      :lon: "-1.3261004"
    - :position: Midfielder
      :name: David Silva
      :height: 67
      :weight: 148
      :birthdate: 01-08-1986
      :birthplace: Arguineguín, Spain
      :current_club: Manchester City (England)
      :lat: '27.7590753'
      :lon: "-15.6813497"
    - :position: Midfielder
      :name: Andrés Iniesta
      :height: 67
      :weight: 143
      :birthdate: 05-11-1984
      :birthplace: Albacete, Spain
      :current_club: Barcelona (Spain)
      :lat: '38.9951049'
      :lon: "-1.8559613"
    - :position: Midfielder
      :name: Santi Cazorla
      :height: 66
      :weight: 145
      :birthdate: 12-13-1984
      :birthplace: Lugo de Llanera, Spain
      :current_club: Arsenal (England)
      :lat: '43.4430551'
      :lon: "-5.8173854"
    - :position: Midfielder
      :name: Juan Mata
      :height: 67
      :weight: 139
      :birthdate: 04-28-1988
      :birthplace: Burgos, Spain
      :current_club: Manchester United (England)
      :lat: '42.343926'
      :lon: "-3.696977"
    - :position: Midfielder
      :name: Cesc Fàbregas
      :height: 71
      :weight: 152
      :birthdate: 05-04-1987
      :birthplace: Vilassar de Mar, Spain
      :current_club: Barcelona (Spain)
      :lat: '41.5064041'
      :lon: '2.3913883'
    - :position: Midfielder
      :name: Pedro Rodríguez
      :height: 67
      :weight: 141
      :birthdate: 07-28-1987
      :birthplace: Santa Cruz de Tenerife, Spain
      :current_club: Barcelona (Spain)
      :lat: '28.4597823'
      :lon: "-16.2536378"
    - :position: Forward
      :name: "Álvaro Negredo"
      :height: 73
      :weight: 187
      :birthdate: 08-20-1985
      :birthplace: Madrid, Spain
      :current_club: Manchester City (England)
      :lat: '40.52516075'
      :lon: "-3.77181653956588"
    - :position: Forward
      :name: Diego Costa
      :height: 73
      :weight: 172
      :birthdate: 10-07-1988
      :birthplace: Lagarto, Brazil
      :current_club: Atletico Madrid (Spain)
      :lat: "-10.913628"
      :lon: "-37.668948"
    - :position: Forward
      :name: David Villa
      :height: 69
      :weight: 152
      :birthdate: 12-03-1981
      :birthplace: Tuilla, Spain
      :current_club: Atletico Madrid (Spain)
      :lat: '43.32821325'
      :lon: "-5.64384783143802"
    - :position: Forward
      :name: Fernando Torres
      :height: 73
      :weight: 172
      :birthdate: 03-20-1984
      :birthplace: Fuenlabrada, Spain
      :current_club: Chelsea (England)
      :lat: '40.2832179'
      :lon: "-3.7973752"
    - :position: Forward
      :name: Fernando Llorente
      :height: 77
      :weight: 198
      :birthdate: 02-26-1985
      :birthplace: Pamplona, Spain
      :current_club: Juventus (Italy)
      :lat: '42.8185502'
      :lon: "-1.6444165"
  - :name: Netherlands
    :players:
    - :position: Goalkeeper
      :name: Jasper Cillessen
      :height: 73
      :weight: 181
      :birthdate: 04-22-1989
      :birthplace: Groesbeek, Netherlands
      :current_club: Ajax (Netherlands)
      :lat: '51.77418'
      :lon: '5.93065'
    - :position: Goalkeeper
      :name: Michel Vorm
      :height: 72
      :weight: 185
      :birthdate: 10-20-1983
      :birthplace: Nieuwegein, Netherlands
      :current_club: Swansea City (Wales)
      :lat: '52.0367157'
      :lon: '5.0836086'
    - :position: Goalkeeper
      :name: Tim Krul
      :height: 74
      :weight: 165
      :birthdate: 04-03-1988
      :birthplace: Den Haag, Netherlands
      :current_club: Newcastle United (England)
      :lat: '52.0799838'
      :lon: '4.3113461'
    - :position: Goalkeeper
      :name: Jeroen Zoet
      :height: 73
      :weight: 
      :birthdate: 01-06-1991
      :birthplace: Veendam, Netherlands
      :current_club: PSV Eindhoven (Netherlands)
      :lat: '53.10285'
      :lon: '6.86935'
    - :position: Defender
      :name: Paul Verhaegh
      :height: 70
      :weight: 159
      :birthdate: 09-01-1983
      :birthplace: Kronenberg, Netherlands
      :current_club: Augsburg (Netherlands)
      :lat: '51.41577'
      :lon: '5.99952'
    - :position: Defender
      :name: Patrick van Aanholt
      :height: 69
      :weight: 
      :birthdate: 08-29-1990
      :birthplace: Hertogenbosch, Netherlands
      :current_club: Vitesse (Netherlands)
      :lat: '51.70986535'
      :lon: '5.29194256832995'
    - :position: Defender
      :name: Daryl Janmaat
      :height: 73
      :weight: 176
      :birthdate: 07-22-1989
      :birthplace: Leidschandam, Netherlands
      :current_club: Feyenoord (Netherlands)
      :lat: 
      :lon: 
    - :position: Defender
      :name: Joël  Veltman
      :height: 72
      :weight: 
      :birthdate: 01-15-1992
      :birthplace: Veltman, Netherlands
      :current_club: Ajax (Netherlands)
      :lat: '52.3545203'
      :lon: '4.832392'
    - :position: Defender
      :name: Stefan de Vrij
      :height: 74
      :weight: 172
      :birthdate: 02-05-1992
      :birthplace: Ouderkerk aan den IJssel, Netherlands
      :current_club: Feyenoord (Netherlands)
      :lat: '51.9344738'
      :lon: '4.6354488'
    - :position: Defender
      :name: Ron Vlaar
      :height: 74
      :weight: 176
      :birthdate: 02-16-1985
      :birthplace: Hensbroek, Netherlands
      :current_club: Aston Villa (England)
      :lat: '52.65852'
      :lon: '4.88461'
    - :position: Defender
      :name: Bruno Martins Indi
      :height: 73
      :weight: 168
      :birthdate: 02-08-1992
      :birthplace: Barreiro, Portugal
      :current_club: Feyenoord (Netherlands)
      :lat: '40.869852'
      :lon: "-8.409"
    - :position: Defender
      :name: Karim Rekik
      :height: 72
      :weight: 
      :birthdate: 12-02-1994
      :birthplace: Den Haag, Netherlands
      :current_club: PSV Eindhoven (Netherlands)
      :lat: '52.0799838'
      :lon: '4.3113461'
    - :position: Defender
      :name: Terence Kongolo
      :height: 72
      :weight: 154
      :birthdate: 02-14-1994
      :birthplace: Fribourg, Switzerland
      :current_club: Feyenoord (Netherlands)
      :lat: '46.8032178'
      :lon: '7.16163193781884'
    - :position: Midfielder
      :name: Daley Blind
      :height: 72
      :weight: 150
      :birthdate: 03-09-1990
      :birthplace: Amsterdam, Netherlands
      :current_club: Ajax (Netherlands)
      :lat: '52.3710088'
      :lon: '4.9001115'
    - :position: Midfielder
      :name: Leroy Fer
      :height: 74
      :weight: 174
      :birthdate: 01-05-1990
      :birthplace: Zoetermeer, Netherlands
      :current_club: Norwich City (England)
      :lat: '52.0622536'
      :lon: '4.4901187'
    - :position: Midfielder
      :name: Nigel de Jong
      :height: 69
      :weight: 159
      :birthdate: 11-30-1984
      :birthplace: Amsterdam, Netherlands
      :current_club: AC Milan (Italy)
      :lat: '52.3710088'
      :lon: '4.9001115'
    - :position: Midfielder
      :name: Jordy Clasie
      :height: 66
      :weight: 150
      :birthdate: 06-27-1991
      :birthplace: Haarlem, Netherlands
      :current_club: Feyenoord (Netherlands)
      :lat: '52.3885322'
      :lon: '4.6388017'
    - :position: Midfielder
      :name: Jonathan de Guzmán
      :height: 69
      :weight: 134
      :birthdate: 09-13-1987
      :birthplace: Scarborough, Canada
      :current_club: Swansea City (Wales)
      :lat: '43.7758014'
      :lon: "-79.253972"
    - :position: Midfielder
      :name: Georginio Wijnaldum
      :height: 70
      :weight: 150
      :birthdate: 11-11-1990
      :birthplace: Rotterdam, Netherlands
      :current_club: PSV Eindhoven (Netherlands)
      :lat: '51.9228958'
      :lon: '4.4631727'
    - :position: Midfielder
      :name: Wesley Sneijder
      :height: 67
      :weight: 168
      :birthdate: 06-09-1984
      :birthplace: Utrecht, Netherlands
      :current_club: Galatasaray (Turkey)
      :lat: '52.11849915'
      :lon: '5.15264611584469'
    - :position: Midfielder
      :name: Tonny Vilhena
      :height: 68
      :weight: 156
      :birthdate: 01-03-1995
      :birthplace: Maassluis, Netherlands
      :current_club: Feyenoord (Netherlands)
      :lat: '51.9176752'
      :lon: '4.2584262'
    - :position: Forward
      :name: Quincy Promes
      :height: 69
      :weight: 
      :birthdate: 01-04-1992
      :birthplace: Amsterdam, Netherlands
      :current_club: Twente (Netherlands)
      :lat: '52.3710088'
      :lon: '4.9001115'
    - :position: Midfielder
      :name: Arjen Robben
      :height: 71
      :weight: 176
      :birthdate: 01-23-1984
      :birthplace: Bedrum, Netherlands
      :current_club: Bayern Munich (Germany)
      :lat: 
      :lon: 
    - :position: Forward
      :name: Jean-Paul Boëtius
      :height: 70
      :weight: 148
      :birthdate: 03-22-1994
      :birthplace: Rotterdam, Netherlands
      :current_club: Feyenoord (Netherlands)
      :lat: '51.9228958'
      :lon: '4.4631727'
    - :position: Forward
      :name: Robin van Persie
      :height: 72
      :weight: 156
      :birthdate: 08-06-1983
      :birthplace: Rotterdam, Netherlands
      :current_club: Manchester United (England)
      :lat: '51.9228958'
      :lon: '4.4631727'
    - :position: Forward
      :name: Klaas-Jan Huntelaar
      :height: 73
      :weight: 172
      :birthdate: 08-12-1983
      :birthplace: Drempt, Netherlands
      :current_club: FC Schalke 04 (Germany)
      :lat: '52.00824'
      :lon: '6.17455'
    - :position: Forward
      :name: Dirk Kuyt
      :height: 72
      :weight: 183
      :birthdate: 07-22-1980
      :birthplace: Katwijk, Netherlands
      :current_club: Fenerbahce (Turkey)
      :lat: '52.2005083'
      :lon: '4.4146341'
    - :position: Forward
      :name: Jeremain Lens
      :height: 70
      :weight: 176
      :birthdate: 11-24-1987
      :birthplace: Amsterdam, Netherlands
      :current_club: Dynamo Kiev (Ukraine)
      :lat: '52.3710088'
      :lon: '4.9001115'
    - :position: Midfielder
      :name: Memphis Depay
      :height: 69
      :weight: 
      :birthdate: 02-13-1994
      :birthplace: Moordecht, Netherlands
      :current_club: PSV Eindhoven (Netherlands)
      :lat: 
      :lon: 
  - :name: Chile
    :players:
    - :position: Goalkeeper
      :name: Claudio Bravo
      :height: 73
      :weight: 179
      :birthdate: 04-13-1983
      :birthplace: Viluco, Chile
      :current_club: Real Sociedad (Spain)
      :lat: "-34.8960776"
      :lon: "-71.1595093"
    - :position: Goalkeeper
      :name: Johnny Herrera
      :height: 72
      :weight: 187
      :birthdate: 05-09-1981
      :birthplace: Angol, Chile
      :current_club: Universidad de Chile (Chile)
      :lat: "-37.7987261"
      :lon: "-72.7087103"
    - :position: Goalkeeper
      :name: Cristopher Toselli
      :height: 72
      :weight: 165
      :birthdate: 06-15-1988
      :birthplace: Antofagasta, Chile
      :current_club: Universidad Catolica (Chile)
      :lat: "-23.6463786"
      :lon: "-70.3980028"
    - :position: Goalkeeper
      :name: Paulo Garces
      :height: 72
      :weight: 159
      :birthdate: 08-02-1984
      :birthplace: Parral, Chile
      :current_club: OHiggins (Chile)
      :lat: "-36.1414202"
      :lon: "-71.8221521"
    - :position: Midfielder
      :name: Gary Medel
      :height: 68
      :weight: 163
      :birthdate: 08-03-1987
      :birthplace: Santiago, Chile
      :current_club: Cardiff City (Wales)
      :lat: "-33.4379935"
      :lon: "-70.6503976"
    - :position: Defender
      :name: Gonzalo Jara
      :height: 70
      :weight: 170
      :birthdate: 08-29-1985
      :birthplace: Santiago de Chile, Chile
      :current_club: Nottingham Forest (England)
      :lat: "-33.4379935"
      :lon: "-70.6503976"
    - :position: Defender
      :name: Enzo Andía
      :height: 74
      :weight: 181
      :birthdate: 08-16-1992
      :birthplace: Ovalle, Chile
      :current_club: Universidad de Catolica (Chile)
      :lat: "-30.6031892"
      :lon: "-71.2030572"
    - :position: Defender
      :name: Eugenio Mena
      :height: 69
      :weight: 150
      :birthdate: 07-18-1988
      :birthplace: Viña del Mar, Chile
      :current_club: Santos (Brazil)
      :lat: "-33.024503"
      :lon: "-71.5518119"
    - :position: Defender
      :name: Mauricio Isla
      :height: 70
      :weight: 159
      :birthdate: 06-12-1988
      :birthplace: Buin, Chile
      :current_club: Juventus (Italy)
      :lat: "-33.7319246"
      :lon: "-70.7419548"
    - :position: Defender
      :name: Miiko Albornoz
      :height: 71
      :weight: 176
      :birthdate: 11-30-1990
      :birthplace: Stockholm, Sweden
      :current_club: Malmo (Sweden)
      :lat: '59.3251172'
      :lon: '18.0710935'
    - :position: Midfielder
      :name: Jorge Valdívia
      :height: 68
      :weight: 156
      :birthdate: 10-19-1983
      :birthplace: Maracaibo, Venezuela
      :current_club: Palmeiras (Brazil)
      :lat: '10.6651557'
      :lon: "-71.6230753"
    - :position: Midfielder
      :name: Felipe Gutiérrez
      :height: 67
      :weight: 
      :birthdate: 10-08-1990
      :birthplace: Quintero, Chile
      :current_club: Twente (Netherlands)
      :lat: "-32.7843106"
      :lon: "-71.5284175"
    - :position: Midfielder
      :name: Rodrigo Millar
      :height: 72
      :weight: 165
      :birthdate: 11-03-1981
      :birthplace: Arauco, Chile
      :current_club: Atlas (Mexico)
      :lat: "-37.2980289"
      :lon: "-73.3787264308003"
    - :position: Defender
      :name: Jose Fuenzalida
      :height: 67
      :weight: 161
      :birthdate: 02-22-1985
      :birthplace: Santiago de Chile, Chile
      :current_club: Colo-Colo (Chile)
      :lat: "-33.4379935"
      :lon: "-70.6503976"
    - :position: Midfielder
      :name: Pablo Hernández
      :height: 73
      :weight: 181
      :birthdate: 10-24-1986
      :birthplace: San Miguel de Tucumán, Argentina
      :current_club: OHiggins (Chile)
      :lat: "-26.84750465"
      :lon: "-65.2259588549969"
    - :position: Midfielder
      :name: Francisco Silva
      :height: 70
      :weight: 176
      :birthdate: 02-11-1986
      :birthplace: Quillota, Chile
      :current_club: Osasuna (Spain)
      :lat: "-32.8799417"
      :lon: "-71.2473936"
    - :position: Midfielder
      :name: Arturo Vidal
      :height: 71
      :weight: 165
      :birthdate: 05-22-1987
      :birthplace: Santiago de Chile, Chile
      :current_club: Juventus (Italy)
      :lat: "-33.4379935"
      :lon: "-70.6503976"
    - :position: Midfielder
      :name: Charles Aránguiz
      :height: 68
      :weight: 154
      :birthdate: 04-17-1989
      :birthplace: Santiago de Chile, Chile
      :current_club: Internacional (Brazil)
      :lat: "-33.4379935"
      :lon: "-70.6503976"
    - :position: Midfielder
      :name: Marcelo Díaz
      :height: 65
      :weight: 148
      :birthdate: 12-30-1986
      :birthplace: Santiago de Chile, Chile
      :current_club: Basel (Switzerland)
      :lat: "-33.4379935"
      :lon: "-70.6503976"
    - :position: Midfielder
      :name: Carlos Carmona
      :height: 70
      :weight: 150
      :birthdate: 02-21-1987
      :birthplace: Coquimbo, Chile
      :current_club: Atalanta (Italy)
      :lat: "-29.9531148"
      :lon: "-71.3380213"
    - :position: Midfielder
      :name: Jean Beausejour
      :height: 70
      :weight: 179
      :birthdate: 06-01-1984
      :birthplace: Santiago de Chile, Chile
      :current_club: Wigan Athletic (England)
      :lat: "-33.4379935"
      :lon: "-70.6503976"
    - :position: Forward
      :name: Alexis Sánchez
      :height: 67
      :weight: 137
      :birthdate: 12-19-1988
      :birthplace: Tocopilla, Chile
      :current_club: Barcelona (Spain)
      :lat: "-22.0887203"
      :lon: "-70.1963017"
    - :position: Forward
      :name: Esteban Paredes
      :height: 69
      :weight: 172
      :birthdate: 08-01-1980
      :birthplace: Santiago de Chile, Chile
      :current_club: Colo-Colo (Chile)
      :lat: "-33.4379935"
      :lon: "-70.6503976"
    - :position: Forward
      :name: Eduardo Vargas
      :height: 69
      :weight: 154
      :birthdate: 11-20-1989
      :birthplace: Santiago de Chile, Chile
      :current_club: Valencia (Spain)
      :lat: "-33.4379935"
      :lon: "-70.6503976"
    - :position: Forward
      :name: Gustavo Canales
      :height: 74
      :weight: 183
      :birthdate: 03-30-1982
      :birthplace: General Roca, Argentina
      :current_club: Union Espanola (Chile)
      :lat: "-34.4671196"
      :lon: "-64.4714283697806"
    - :position: Forward
      :name: Mauricio Pinilla
      :height: 73
      :weight: 165
      :birthdate: 02-04-1984
      :birthplace: San Bernardo, Chile
      :current_club: Cagliari (Italy)
      :lat: "-33.5922949"
      :lon: "-70.7044657"
    - :position: Forward
      :name: Fabian Orellana
      :height: 66
      :weight: 154
      :birthdate: 01-27-1986
      :birthplace: Santiago de Chile, Chile
      :current_club: Celta de Vigo (Spain)
      :lat: "-33.4379935"
      :lon: "-70.6503976"
  - :name: Australia
    :players:
    - :position: Goalkeeper
      :name: Mark Birgihitti
      :height: 73
      :weight: 185
      :birthdate: 04-17-1991
      :birthplace: Perth, Australia
      :current_club: Newcastle Jets (Australia)
      :lat: "-31.9527121"
      :lon: '115.8604796'
    - :position: Goalkeeper
      :name: Eugene Galekovic
      :height: 73
      :weight: 201
      :birthdate: 06-12-1981
      :birthplace: Melbourne, Australia
      :current_club: Adelaide United (Australia)
      :lat: "-37.8142176"
      :lon: '144.9631608'
    - :position: Goalkeeper
      :name: Mitchell Langerak
      :height: 76
      :weight: 183
      :birthdate: 08-22-1988
      :birthplace: Emerald, Australia
      :current_club: Borussia Dortmund (Germany)
      :lat: "-23.52603"
      :lon: '148.1617694'
    - :position: Goalkeeper
      :name: Mathew Ryan
      :height: 71
      :weight: 161
      :birthdate: 04-08-1992
      :birthplace: Plumpton, Australia
      :current_club: Club Brugge (Belgium)
      :lat: "-33.7566667"
      :lon: '150.8427778'
    - :position: Defender
      :name: Ivan Franjić
      :height: 71
      :weight: 170
      :birthdate: 09-10-1987
      :birthplace: Melbourne, Australia
      :current_club: Brisbane Roar (Australia)
      :lat: "-37.8142176"
      :lon: '144.9631608'
    - :position: Defender
      :name: Ryan McGowan
      :height: 74
      :weight: 165
      :birthdate: 08-15-1989
      :birthplace: Adelaide, Australia
      :current_club: Shandong Luneng Taishan (China)
      :lat: "-34.9274284"
      :lon: '138.599899'
    - :position: Defender
      :name: Matthew Spiranovic
      :height: 76
      :weight: 194
      :birthdate: 06-27-1988
      :birthplace: Geelong, Australia
      :current_club: Western Sydney Wanderers (Australia)
      :lat: "-38.1492813"
      :lon: '144.3598269'
    - :position: Defender
      :name: Alex Wilkinson
      :height: 73
      :weight: 187
      :birthdate: 08-13-1984
      :birthplace: Sydney, Australia
      :current_club: Jeonbuk Hyundai Motors (South Korea)
      :lat: "-33.8548157"
      :lon: '151.2164539'
    - :position: Defender
      :name: Bailey Wright
      :height: 69
      :weight: 187
      :birthdate: 07-28-1992
      :birthplace: Melbourne, Australia
      :current_club: Preston North End (England)
      :lat: "-37.8142176"
      :lon: '144.9631608'
    - :position: Midfielder
      :name: Oliver Bozanic
      :height: 69
      :weight: 156
      :birthdate: 01-08-1989
      :birthplace: Sydney, Australia
      :current_club: Luzern (Switzerland)
      :lat: "-33.8548157"
      :lon: '151.2164539'
    - :position: Midfielder
      :name: Mark Bresciano
      :height: 71
      :weight: 161
      :birthdate: 02-11-1980
      :birthplace: Melbourne, Australia
      :current_club: Al-Gharafa (Qatar)
      :lat: "-37.8142176"
      :lon: '144.9631608'
    - :position: Midfielder
      :name: James Holland
      :height: 72
      :weight: 168
      :birthdate: 05-15-1989
      :birthplace: Sydney, Australia
      :current_club: Austria Wien (Austria)
      :lat: "-33.8548157"
      :lon: '151.2164539'
    - :position: Midfielder
      :name: Mile Jedinak
      :height: 74
      :weight: 192
      :birthdate: 08-03-1984
      :birthplace: Sydney, Australia
      :current_club: Crystal Palace (England)
      :lat: "-33.8548157"
      :lon: '151.2164539'
    - :position: Midfielder
      :name: Massimo Luongo
      :height: 69
      :weight: 
      :birthdate: 09-25-1992
      :birthplace: Sydney, Australia
      :current_club: Swindon Town (England)
      :lat: "-33.8548157"
      :lon: '151.2164539'
    - :position: Midfielder
      :name: Matt McKay
      :height: 68
      :weight: 143
      :birthdate: 01-11-1983
      :birthplace: Brisbane, Australia
      :current_club: Brisbane Roar (Australia)
      :lat: "-27.4689682"
      :lon: '153.0234991'
    - :position: Midfielder
      :name: Mark Milligan
      :height: 71
      :weight: 176
      :birthdate: 08-04-1985
      :birthplace: Sydney, Australia
      :current_club: Melbourne Victory (Australia)
      :lat: "-33.8548157"
      :lon: '151.2164539'
    - :position: Midfielder
      :name: Tommy Oar
      :height: 67
      :weight: 141
      :birthdate: 12-20-1991
      :birthplace: Southport, Australia
      :current_club: Utrecht (Netherlands)
      :lat: "-43.4306374"
      :lon: '146.9754021'
    - :position: Midfielder
      :name: Tom Rogic
      :height: 74
      :weight: 176
      :birthdate: 12-16-1992
      :birthplace: Griffith, Australia
      :current_club: Celtic (Scotland)
      :lat: "-34.2870772"
      :lon: '146.0551022'
    - :position: Midfielder
      :name: Dario Vidosic
      :height: 73
      :weight: 165
      :birthdate: 04-08-1987
      :birthplace: Osijek, Croatia
      :current_club: Sion (Switzerland)
      :lat: '45.5540026'
      :lon: '18.6897053'
    - :position: Midfielder
      :name: Tim Cahill
      :height: 70
      :weight: 150
      :birthdate: 12-06-1979
      :birthplace: Sydney, Australia
      :current_club: New York Red Bulls (USA)
      :lat: "-33.8548157"
      :lon: '151.2164539'
    - :position: Forward
      :name: Joshua Kennedy
      :height: 76
      :weight: 185
      :birthdate: 08-20-1982
      :birthplace: Wodonga, Australia
      :current_club: Nagoya Grampus (Japan)
      :lat: "-36.1247183"
      :lon: '146.8882581'
    - :position: Forward
      :name: Mathew Leckie
      :height: 71
      :weight: 185
      :birthdate: 02-04-1991
      :birthplace: Melbourne, Australia
      :current_club: FSV Frankfurt (Germany)
      :lat: "-37.8142176"
      :lon: '144.9631608'
    - :position: Forward
      :name: Adam Taggart
      :height: 72
      :weight: 152
      :birthdate: 06-02-1993
      :birthplace: Perth, Australia
      :current_club: Newcastle Jets (Australia)
      :lat: "-31.9527121"
      :lon: '115.8604796'
    - :position: Midfielder
      :name: James Troisi
      :height: 70
      :weight: 172
      :birthdate: 07-03-1988
      :birthplace: Adelaide, Australia
      :current_club: Atalanta (Italy)
      :lat: "-34.9274284"
      :lon: '138.599899'
- :group: C
  :teams:
  - :name: Colombia
    :players:
    - :position: Goalkeeper
      :name: David Ospina
      :height: 72
      :weight: 176
      :birthdate: 08-31-1988
      :birthplace: Medellín, Antioquia
      :current_club: Nice (France)
      :lat: '6.2443382'
      :lon: "-75.573553"
    - :position: Goalkeeper
      :name: Faryd Mondragón
      :height: 75
      :weight: 208
      :birthdate: 06-21-1971
      :birthplace: Cali, Valle del Cauca
      :current_club: Deportivo Cali (Colombia)
      :lat: '3.41056195'
      :lon: "-76.5787280404927"
    - :position: Goalkeeper
      :name: Camilo Vargas
      :height: 73
      :weight: 192
      :birthdate: 03-09-1989
      :birthplace: Bogotá, Colombia
      :current_club: Santa Fe (Colombia)
      :lat: '4.5980478'
      :lon: "-74.0760867"
    - :position: Defender
      :name: Mario Yepes
      :height: 73
      :weight: 183
      :birthdate: 01-13-1976
      :birthplace: Cali, Colombia
      :current_club: Atalanta (Italy)
      :lat: '3.41056195'
      :lon: "-76.5787280404927"
    - :position: Defender
      :name: Cristián Zapata
      :height: 74
      :weight: 181
      :birthdate: 09-30-1986
      :birthplace: Padilla, Colombia
      :current_club: AC Milan (Italy)
      :lat: '3.2244006'
      :lon: "-76.3156438"
    - :position: Defender
      :name: Pablo Armero
      :height: 69
      :weight: 179
      :birthdate: 11-02-1986
      :birthplace: Tumáco, Colombia
      :current_club: West Ham United (England)
      :lat: '1.8077554'
      :lon: "-78.7705977"
    - :position: Defender
      :name: Camilo Zúñiga
      :height: 68
      :weight: 159
      :birthdate: 12-14-1985
      :birthplace: Chigorodó, Colombia
      :current_club: Napoli (Italy)
      :lat: '7.6131888'
      :lon: "-76.6360436374956"
    - :position: Defender
      :name: Aquivaldo Mosquera
      :height: 72
      :weight: 183
      :birthdate: 06-22-1981
      :birthplace: Apartadó, Colombia
      :current_club: Club America (Mexico)
      :lat: '7.92212155'
      :lon: "-76.5305896540264"
    - :position: Defender
      :name: Santiago Arias
      :height: 69
      :weight: 150
      :birthdate: 01-13-1992
      :birthplace: Medellín, Colombia
      :current_club: PSV Eindhoven (Netherlands)
      :lat: '6.2443382'
      :lon: "-75.573553"
    - :position: Defender
      :name: Luis Perea
      :height: 71
      :weight: 170
      :birthdate: 01-30-1979
      :birthplace: Turbo, Colombia
      :current_club: Cruz Azul (Mexico)
      :lat: '8.0927851'
      :lon: "-76.7254766"
    - :position: Defender
      :name: "Éder Álvarez"
      :height: 71
      :weight: 185
      :birthdate: 02-28-1993
      :birthplace: Bogotá, Colombia
      :current_club: River Plate (Argentina)
      :lat: '4.5980478'
      :lon: "-74.0760867"
    - :position: Defender
      :name: Carlos Valdés
      :height: 73
      :weight: 176
      :birthdate: 05-22-1985
      :birthplace: Cali, Colombia
      :current_club: San Lorenzo (Argentina)
      :lat: '3.41056195'
      :lon: "-76.5787280404927"
    - :position: Midfielder
      :name: Fredy Guarín
      :height: 72
      :weight: 170
      :birthdate: 06-30-1986
      :birthplace: Puerto Boyacá, Colombia
      :current_club: Inter Milan (Italy)
      :lat: '5.9756376'
      :lon: "-74.5882837"
    - :position: Midfielder
      :name: Juan Cuadrado
      :height: 69
      :weight: 145
      :birthdate: 05-26-1988
      :birthplace: Necoclí, Colombia
      :current_club: Fiorentina (Italy)
      :lat: '8.4233906'
      :lon: "-76.781487"
    - :position: Midfielder
      :name: James Rodríguez
      :height: 71
      :weight: 170
      :birthdate: 07-12-1991
      :birthplace: Cúcuta, Colombia
      :current_club: AS Monaco (France)
      :lat: '7.8971458'
      :lon: "-72.5080387"
    - :position: Midfielder
      :name: Abel Aguilar
      :height: 73
      :weight: 181
      :birthdate: 01-06-1985
      :birthplace: Bogotá, Colombia
      :current_club: Toulouse (France)
      :lat: '4.5980478'
      :lon: "-74.0760867"
    - :position: Midfielder
      :name: Juan Quintero
      :height: 67
      :weight: 141
      :birthdate: 01-18-1993
      :birthplace: Medellín, Colombia
      :current_club: Porto (Portugal)
      :lat: '6.2443382'
      :lon: "-75.573553"
    - :position: Midfielder
      :name: Carlos Sánchez
      :height: 72
      :weight: 181
      :birthdate: 03-06-1986
      :birthplace: Quibdó, Colombia
      :current_club: Elche (Spain)
      :lat: '5.6845709'
      :lon: "-76.6540463"
    - :position: Midfielder
      :name: Macnelly Torres
      :height: 67
      :weight: 159
      :birthdate: 11-01-1984
      :birthplace: Barranquilla, Colombia
      :current_club: Al-Shabab (Saudi Arabia)
      :lat: '10.979932'
      :lon: "-74.7957384"
    - :position: Midfielder
      :name: Aldo Leão Ramírez
      :height: 69
      :weight: 168
      :birthdate: 04-18-1981
      :birthplace: Santa Marta, Colombia
      :current_club: Morelia (Mexico)
      :lat: '11.0869132'
      :lon: "-73.8807020374619"
    - :position: Midfielder
      :name: Edwin Valencia
      :height: 71
      :weight: 181
      :birthdate: 03-29-1985
      :birthplace: Florida, Colombia
      :current_club: Fluminense (Brazil)
      :lat: '3.3256006'
      :lon: "-76.2370118"
    - :position: Midfielder
      :name: Alexander Mejía
      :height: 70
      :weight: 174
      :birthdate: 07-11-1988
      :birthplace: Barranquilla, Colombia
      :current_club: Atletico Nacional (Colombia)
      :lat: '10.979932'
      :lon: "-74.7957384"
    - :position: Midfielder
      :name: Elkin Soto
      :height: 70
      :weight: 168
      :birthdate: 08-04-1980
      :birthplace: Manizales, Colombia
      :current_club: Mainz 05 (Germany)
      :lat: '5.07448715'
      :lon: "-75.5080095311939"
    - :position: Forward
      :name: Radamel Falcao
      :height: 70
      :weight: 159
      :birthdate: 02-10-1986
      :birthplace: Santa Marta, Colombia
      :current_club: AS Monaco (France)
      :lat: '11.0869132'
      :lon: "-73.8807020374619"
    - :position: Forward
      :name: Víctor Ibarbo
      :height: 74
      :weight: 174
      :birthdate: 05-19-1990
      :birthplace: Cali, Colombia
      :current_club: Cagliari (Italy)
      :lat: '3.41056195'
      :lon: "-76.5787280404927"
    - :position: Forward
      :name: Luis Muriel
      :height: 70
      :weight: 165
      :birthdate: 04-16-1991
      :birthplace: Santo Tomas, Colombia
      :current_club: Udinese (Italy)
      :lat: '10.2151126'
      :lon: "-73.3890336"
    - :position: Forward
      :name: Jackson Martínez
      :height: 73
      :weight: 165
      :birthdate: 10-03-1986
      :birthplace: Quibdó, Colombia
      :current_club: Porto (Portugal)
      :lat: '5.6845709'
      :lon: "-76.6540463"
    - :position: Forward
      :name: Carlos Bacca
      :height: 70
      :weight: 168
      :birthdate: 09-08-1986
      :birthplace: Puerto Colombia, Colombia
      :current_club: Sevilla (Spain)
      :lat: '10.9891292'
      :lon: "-74.955414"
    - :position: Forward
      :name: Adrián Ramos
      :height: 73
      :weight: 163
      :birthdate: 01-22-1986
      :birthplace: Santander de Quilichao, Colombia
      :current_club: Hertha Berlin (Germany)
      :lat: '3.0212355'
      :lon: "-76.4842244"
    - :position: Forward
      :name: Teófilo Gutiérrez
      :height: 70
      :weight: 183
      :birthdate: 05-27-1985
      :birthplace: Barranquilla, Colombia
      :current_club: River Plate (Argentina)
      :lat: '10.979932'
      :lon: "-74.7957384"
  - :name: Greece
    :players:
    - :position: Goalkeeper
      :name: Alexandros Tzorvas
      :height: 74
      :weight: 176
      :birthdate: 08-12-1982
      :birthplace: Athens, Greece
      :current_club: Apollon Smyrni (Greece)
      :lat: '37.9841493'
      :lon: '23.7279843'
    - :position: Goalkeeper
      :name: Michalis Sifakis
      :height: 73
      :weight: 179
      :birthdate: 09-09-1984
      :birthplace: Iraklion, Greece
      :current_club: Atromitos (Greece)
      :lat: '35.1765819'
      :lon: '25.1465992017728'
    - :position: Goalkeeper
      :name: Orestis Karnezis
      :height: 74
      :weight: 174
      :birthdate: 07-11-1985
      :birthplace: Athens, Greece
      :current_club: Granada (Spain)
      :lat: '37.9841493'
      :lon: '23.7279843'
    - :position: Goalkeeper
      :name: Panagiotis Glikos
      :height: 74
      :weight: 
      :birthdate: 10-10-1986
      :birthplace: Volos, Greece
      :current_club: PAOK (Greece)
      :lat: '39.3627405'
      :lon: '22.9400319'
    - :position: Goalkeeper
      :name: Stefanos Kapino
      :height: 77
      :weight: 
      :birthdate: 03-18-1994
      :birthplace: Piraeus, Greece
      :current_club: Panathinaikos (Greece)
      :lat: '37.9440109'
      :lon: '23.6483543'
    - :position: Defender
      :name: Avraam Papadopoulos
      :height: 74
      :weight: 170
      :birthdate: 05-03-1984
      :birthplace: Melbourne, Australia
      :current_club: Olympiacos (Greece)
      :lat: "-37.8142176"
      :lon: '144.9631608'
    - :position: Defender
      :name: Dimitrios Siovas
      :height: 75
      :weight: 
      :birthdate: 09-16-1988
      :birthplace: Drama, Greece
      :current_club: Olympiacos (Greece)
      :lat: '41.27064625'
      :lon: '24.1554768930545'
    - :position: Defender
      :name: Kostas Manolas
      :height: 70
      :weight: 148
      :birthdate: 06-14-1991
      :birthplace: Athens, Greece
      :current_club: Olympiacos (Greece)
      :lat: '37.9841493'
      :lon: '23.7279843'
    - :position: Midfielder
      :name: Giannis Maniatis
      :height: 70
      :weight: 156
      :birthdate: 10-12-1986
      :birthplace: Livadeia, Greece
      :current_club: Olympiacos (Greece)
      :lat: 
      :lon: 
    - :position: Defender
      :name: Jose Holebas
      :height: 72
      :weight: 174
      :birthdate: 06-27-1984
      :birthplace: Aschaffenburg, Germany
      :current_club: Olympiacos (Greece)
      :lat: '49.9739001'
      :lon: '9.1491699'
    - :position: Defender
      :name: Sokratis Papastathopoulos
      :height: 73
      :weight: 187
      :birthdate: 06-09-1988
      :birthplace: Kalamata, Greece
      :current_club: Borussia Dortmund (Germany)
      :lat: '37.0377582'
      :lon: '22.1109392'
    - :position: Defender
      :name: Georgios Tzavellas
      :height: 72
      :weight: 176
      :birthdate: 11-26-1987
      :birthplace: Vyronas, Greece
      :current_club: PAOK (Greece)
      :lat: '37.9565549'
      :lon: '23.75537'
    - :position: Defender
      :name: Loukas Vyntra
      :height: 72
      :weight: 168
      :birthdate: 02-05-1981
      :birthplace: Mesto Albrechtice, Czech Republic
      :current_club: Levante (Spain)
      :lat: '50.1629396'
      :lon: '17.5748075'
    - :position: Defender
      :name: Vasilis Torosidis
      :height: 72
      :weight: 176
      :birthdate: 06-10-1985
      :birthplace: Xanthi, Greece
      :current_club: AS Roma (Italy)
      :lat: '41.1380289'
      :lon: '24.8862688'
    - :position: Midfielder
      :name: Alexandros Tziolis
      :height: 74
      :weight: 185
      :birthdate: 02-13-1985
      :birthplace: Katerini, Greece
      :current_club: Kayserispor (Turkey)
      :lat: '40.2712571'
      :lon: '22.50888'
    - :position: Midfielder
      :name: Andreas Samaris
      :height: 74
      :weight: 
      :birthdate: 06-13-1989
      :birthplace: Patras, Greece
      :current_club: Olympiacos (Greece)
      :lat: '38.2462033'
      :lon: '21.7352492'
    - :position: Midfielder
      :name: Kostas Katsouranis
      :height: 72
      :weight: 179
      :birthdate: 06-21-1979
      :birthplace: Patras, Greece
      :current_club: PAOK (Greece)
      :lat: '38.2462033'
      :lon: '21.7352492'
    - :position: Midfielder
      :name: Giorgos Karagounis
      :height: 69
      :weight: 163
      :birthdate: 03-06-1977
      :birthplace: Pyrgos, Greece
      :current_club: Fulham (England)
      :lat: '37.6711849'
      :lon: '21.4422805'
    - :position: Midfielder
      :name: Panagiotis Tachtsidis
      :height: 75
      :weight: 190
      :birthdate: 02-15-1991
      :birthplace: Nafplio, Greece
      :current_club: Torino (Italy)
      :lat: '37.5696972'
      :lon: '22.808078'
    - :position: Midfielder
      :name: Sotiris Ninis
      :height: 68
      :weight: 154
      :birthdate: 04-03-1990
      :birthplace: Himare, Albania
      :current_club: PAOK (Greece)
      :lat: '40.102163'
      :lon: '19.7472977'
    - :position: Midfielder
      :name: Giannis Fetfatzidis
      :height: 66
      :weight: 141
      :birthdate: 12-21-1990
      :birthplace: Athens, Greece
      :current_club: Genoa (Italy)
      :lat: '37.9841493'
      :lon: '23.7279843'
    - :position: Midfielder
      :name: Kostas Fortounis
      :height: 72
      :weight: 154
      :birthdate: 10-16-1992
      :birthplace: Trikala, Greece
      :current_club: Kaiserslauten (Germany)
      :lat: '39.6282934'
      :lon: '21.6476240930237'
    - :position: Midfielder
      :name: Lazaros Christodoulopoulos
      :height: 72
      :weight: 170
      :birthdate: 12-19-1986
      :birthplace: Thessaloniki, Greece
      :current_club: Bologna (Italy)
      :lat: '40.6403167'
      :lon: '22.9352716'
    - :position: Midfielder
      :name: Panagiotis Kone
      :height: 72
      :weight: 163
      :birthdate: 07-26-1987
      :birthplace: Tirana, Greece
      :current_club: Bologna (Italy)
      :lat: 
      :lon: 
    - :position: Forward
      :name: Dimitrios Papadopoulos
      :height: 70
      :weight: 156
      :birthdate: 10-20-1981
      :birthplace: Gagarin, Uzbekistan
      :current_club: Atromitos (Greece)
      :lat: '37.420221'
      :lon: '66.9835143'
    - :position: Forward
      :name: Dimitris Salpingidis
      :height: 70
      :weight: 159
      :birthdate: 08-18-1981
      :birthplace: Thessaloniki, Greece
      :current_club: PAOK (Greece)
      :lat: '40.6403167'
      :lon: '22.9352716'
    - :position: Forward
      :name: Georgios Samaras
      :height: 76
      :weight: 181
      :birthdate: 02-21-1985
      :birthplace: Heraklion, Greece
      :current_club: Celtic (Scotland)
      :lat: '35.3340134'
      :lon: '25.1328543'
    - :position: Forward
      :name: Kostas Mitroglu
      :height: 74
      :weight: 190
      :birthdate: 03-12-1988
      :birthplace: Kavala, Greece
      :current_club: Fulham (England)
      :lat: '40.8663272'
      :lon: '24.3998825416416'
    - :position: Forward
      :name: Fanis Gekas
      :height: 71
      :weight: 156
      :birthdate: 05-23-1980
      :birthplace: Larissa, Greece
      :current_club: Konyaspor (Turkey)
      :lat: '39.6369927'
      :lon: '22.417088'
- :group: D
  :teams:
  - :name: Uruguay
    :players:
    - :position: Goalkeeper
      :name: Fernando Muslera
      :height: 75
      :weight: 185
      :birthdate: 06-16-1986
      :birthplace: Buenos Aires, Argentina
      :current_club: Galatasaray (Turkey)
      :lat: "-34.612869"
      :lon: "-58.4459789"
    - :position: Goalkeeper
      :name: Martín Silva
      :height: 73
      :weight: 176
      :birthdate: 03-25-1983
      :birthplace: Montevideo, Uruguay
      :current_club: Vasco da Gama (Brazil)
      :lat: "-34.9059039"
      :lon: "-56.1913569"
    - :position: Goalkeeper
      :name: Rodrigo Muñoz
      :height: 71
      :weight: 174
      :birthdate: 01-22-1982
      :birthplace: Montevideo, Uruguay
      :current_club: Libertad (Paraguay)
      :lat: "-34.9059039"
      :lon: "-56.1913569"
    - :position: Defender
      :name: Diego Lugano
      :height: 73
      :weight: 183
      :birthdate: 11-02-1980
      :birthplace: Canelones, Uruguay
      :current_club: West Bromwich Albion (England)
      :lat: "-34.5242373"
      :lon: "-56.2817519"
    - :position: Defender
      :name: Diego Godín
      :height: 73
      :weight: 161
      :birthdate: 02-16-1986
      :birthplace: Rosario, Uruguay
      :current_club: Atletico Madrid (Spain)
      :lat: "-34.3115588"
      :lon: "-57.3512918"
    - :position: Defender
      :name: José María Giménez
      :height: 73
      :weight: 176
      :birthdate: 01-20-1995
      :birthplace: Toledo, Uruguay
      :current_club: Atletico Madrid (Spain)
      :lat: "-32.5295905"
      :lon: "-54.5294232"
    - :position: Defender
      :name: Martín Cáceres
      :height: 72
      :weight: 170
      :birthdate: 04-07-1987
      :birthplace: Montevideo, Uruguay
      :current_club: Juventus (Italy)
      :lat: "-34.9059039"
      :lon: "-56.1913569"
    - :position: Defender
      :name: Maxi Pereira
      :height: 68
      :weight: 161
      :birthdate: 06-08-1984
      :birthplace: Montevideo, Uruguay
      :current_club: Benfica (Portugal)
      :lat: "-34.9059039"
      :lon: "-56.1913569"
    - :position: Defender
      :name: Jorge Fucile
      :height: 70
      :weight: 161
      :birthdate: 11-19-1984
      :birthplace: Montevideo, Uruguay
      :current_club: Porto (Portugal)
      :lat: "-34.9059039"
      :lon: "-56.1913569"
    - :position: Defender
      :name: Sebastian Coates
      :height: 77
      :weight: 187
      :birthdate: 10-07-1990
      :birthplace: Montevideo, Uruguay
      :current_club: Nacional (Uruguay)
      :lat: "-34.9059039"
      :lon: "-56.1913569"
    - :position: Midfielder
      :name: Alejandro Silva
      :height: 70
      :weight: 148
      :birthdate: 09-04-1989
      :birthplace: Montevideo, Uruguay
      :current_club: Lanus (Argentina)
      :lat: "-34.9059039"
      :lon: "-56.1913569"
    - :position: Midfielder
      :name: Egidio Arévalo Ríos
      :height: 67
      :weight: 165
      :birthdate: 01-01-1982
      :birthplace: Paysandú, Uruguay
      :current_club: Morelia (Mexico)
      :lat: "-32.3127555"
      :lon: "-58.0776762"
    - :position: Midfielder
      :name: Walter Gargano
      :height: 66
      :weight: 143
      :birthdate: 07-27-1984
      :birthplace: Paysandú, Uruguay
      :current_club: Parma (Italy)
      :lat: "-32.3127555"
      :lon: "-58.0776762"
    - :position: Midfielder
      :name: Sebastián Eguren
      :height: 73
      :weight: 185
      :birthdate: 01-08-1981
      :birthplace: Montevideo, Uruguay
      :current_club: Palmeiras (Brazil)
      :lat: "-34.9059039"
      :lon: "-56.1913569"
    - :position: Midfielder
      :name: "Álvaro González"
      :height: 69
      :weight: 159
      :birthdate: 10-29-1984
      :birthplace: Montevideo, Uruguay
      :current_club: Lazio (Italy)
      :lat: "-34.9059039"
      :lon: "-56.1913569"
    - :position: Midfielder
      :name: "Álvaro Pereira"
      :height: 71
      :weight: 172
      :birthdate: 11-28-1985
      :birthplace: Montevideo, Uruguay
      :current_club: Sao Paulo (Brazil)
      :lat: "-34.9059039"
      :lon: "-56.1913569"
    - :position: Midfielder
      :name: Cristian Rodríguez
      :height: 70
      :weight: 165
      :birthdate: 09-30-1985
      :birthplace: Juan Lacaze, Uruguay
      :current_club: Atletico Madrid (Spain)
      :lat: "-34.4344168"
      :lon: "-57.4378064"
    - :position: Midfielder
      :name: Gastón Ramirez
      :height: 72
      :weight: 172
      :birthdate: 12-02-1990
      :birthplace: Fray Bentos, Uruguay
      :current_club: Southampton (England)
      :lat: "-33.2484916"
      :lon: "-58.3870691"
    - :position: Midfielder
      :name: Nicolás Lodeiro
      :height: 67
      :weight: 152
      :birthdate: 03-21-1989
      :birthplace: Paysandú, Uruguay
      :current_club: Botafogo (Brazil)
      :lat: "-32.3127555"
      :lon: "-58.0776762"
    - :position: Forward
      :name: Edinson Cavani
      :height: 72
      :weight: 163
      :birthdate: 02-14-1987
      :birthplace: Salto, Uruguay
      :current_club: Paris Saint-Germain (France)
      :lat: "-30.9208217"
      :lon: "-57.8742069"
    - :position: Forward
      :name: Luis Suárez
      :height: 71
      :weight: 179
      :birthdate: 01-24-1987
      :birthplace: Salto, Uruguay
      :current_club: Liverpool (England)
      :lat: "-30.9208217"
      :lon: "-57.8742069"
    - :position: Forward
      :name: Diego Forlán
      :height: 71
      :weight: 165
      :birthdate: 05-19-1979
      :birthplace: Montevideo, Uruguay
      :current_club: Cerezo Osaka (Japan)
      :lat: "-34.9059039"
      :lon: "-56.1913569"
    - :position: Forward
      :name: Abel Hernández
      :height: 73
      :weight: 161
      :birthdate: 08-08-1990
      :birthplace: Pando, Uruguay
      :current_club: Palermo (Italy)
      :lat: "-34.5556741"
      :lon: "-55.9311021"
    - :position: Forward
      :name: Christian Stuani
      :height: 73
      :weight: 168
      :birthdate: 10-12-1986
      :birthplace: Tala, Uruguay
      :current_club: Espanyol (Spain)
      :lat: "-33.2036283"
      :lon: "-57.4124493"
    - :position: Defender
      :name: Andrés Scotti
      :height: 72
      :weight: 176
      :birthdate: 12-14-1975
      :birthplace: Montevideo, Uruguay
      :current_club: Nacional (Uruguay)
      :lat: "-34.9059039"
      :lon: "-56.1913569"
    - :position: Midfielder
      :name: "Álvaro Fernández"
      :height: 73
      :weight: 159
      :birthdate: 10-11-1985
      :birthplace: Nueva Palmira, Uruguay
      :current_club: Nacional (Uruguay)
      :lat: "-33.8710911"
      :lon: "-58.4068884"
    - :position: Midfielder
      :name: Gonzalo Castro
      :height: 69
      :weight: 154
      :birthdate: 09-14-1984
      :birthplace: Trinidad, Uruguay
      :current_club: Real Sociedad (Spain)
      :lat: "-33.5173479"
      :lon: "-56.8979718"
  - :name: Costa rica
    :players:
    - :position: Goalkeeper
      :name: Keylor Navas
      :height: 73
      :weight: 172
      :birthdate: 12-15-1986
      :birthplace: Pérez Zeledón, Costa Rica
      :current_club: Levante (Spain)
      :lat: '9.2865149'
      :lon: "-83.5349063"
    - :position: Goalkeeper
      :name: Patrick Pemberton
      :height: 70
      :weight: 
      :birthdate: 04-24-1982
      :birthplace: 
      :current_club: Alajuelense (Costa Rica)
    - :position: Goalkeeper
      :name: Daniel Cambronero
      :height: 71
      :weight: 163
      :birthdate: 01-08-1986
      :birthplace: San Jose, Costa Rica
      :current_club: Herediano (Costa Rica)
      :lat: '9.7888222'
      :lon: "-84.301611"
    - :position: Goalkeeper
      :name: Esteban Alvarado
      :height: 76
      :weight: 
      :birthdate: 04-28-1989
      :birthplace: Puerto Limon, Costa Rica
      :current_club: AZ Alkmaar (Netherlands)
      :lat: '9.9118449'
      :lon: "-84.7163001159889"
    - :position: Defender
      :name: Johnny Acosta
      :height: 70
      :weight: 170
      :birthdate: 07-21-1983
      :birthplace: Alajuela, Costa Rica
      :current_club: Alajuelense (Costa Rica)
      :lat: '10.6916755'
      :lon: "-84.7561318"
    - :position: Defender
      :name: Giancarlo González
      :height: 75
      :weight: 185
      :birthdate: 02-08-1988
      :birthplace: San José, Costa Rica
      :current_club: Columbus Crew (USA)
      :lat: '9.9327307'
      :lon: "-84.0793006"
    - :position: Defender
      :name: Míchael Umaña
      :height: 72
      :weight: 161
      :birthdate: 07-16-1982
      :birthplace: Santa Ana, Costa Rica
      :current_club: Saprissa (Costa Rica)
      :lat: '9.9325844'
      :lon: "-84.1823733"
    - :position: Defender
      :name: Oscar Duarte
      :height: 72
      :weight: 187
      :birthdate: 06-03-1989
      :birthplace: Masaya, Nicaragua
      :current_club: Club Brugge (Belgium)
      :lat: '11.9867657'
      :lon: "-86.0812016308932"
    - :position: Defender
      :name: Waylon Francis
      :height: 69
      :weight: 160
      :birthdate: 09-20-1990
      :birthplace: Puerto Limon, Costa Rica
      :current_club: Columbus Crew (USA)
      :lat: '9.9118449'
      :lon: "-84.7163001159889"
    - :position: Defender
      :name: Heiner Mora
      :height: 70
      :weight: 168
      :birthdate: 06-20-1984
      :birthplace: San Jose, Costa Rica
      :current_club: Saprissa (Costa Rica)
      :lat: '9.7888222'
      :lon: "-84.301611"
    - :position: Defender
      :name: Júnior Díaz
      :height: 73
      :weight: 168
      :birthdate: 09-12-1983
      :birthplace: San José, Costa Rica
      :current_club: Mainz 05 (Germany)
      :lat: '9.9327307'
      :lon: "-84.0793006"
    - :position: Defender
      :name: Cristian Gamboa
      :height: 69
      :weight: 148
      :birthdate: 10-24-1989
      :birthplace: Liberia, Costa Rica
      :current_club: Rosenborg (Norway)
      :lat: '10.6343259'
      :lon: "-85.4410926"
    - :position: Defender
      :name: Roy Miller
      :height: 74
      :weight: 166
      :birthdate: 11-24-1984
      :birthplace: San Jose, Costa Rica
      :current_club: New York Red Bulls (USA)
      :lat: '9.7888222'
      :lon: "-84.301611"
    - :position: Defender
      :name: Kendall Watson
      :height: 77
      :weight: 
      :birthdate: 01-01-1988
      :birthplace: 
      :current_club: Saprissa (Costa Rica)
    - :position: Midfielder
      :name: Celso Borges
      :height: 72
      :weight: 172
      :birthdate: 05-27-1988
      :birthplace: San José, Costa Rica
      :current_club: AIK (Sweden)
      :lat: '9.9327307'
      :lon: "-84.0793006"
    - :position: Midfielder
      :name: Oscar Esteban Granados
      :height: 72
      :weight: 163
      :birthdate: 10-25-1985
      :birthplace: 
      :current_club: Herediano (Costa Rica)
    - :position: Midfielder
      :name: Michael Barrantes
      :height: 70
      :weight: 156
      :birthdate: 10-04-1983
      :birthplace: San José, Costa Rica
      :current_club: Aalesund (Norway)
      :lat: '9.9327307'
      :lon: "-84.0793006"
    - :position: Midfielder
      :name: Yeltsin Tejeda
      :height: 70
      :weight: 
      :birthdate: 03-17-1992
      :birthplace: 
      :current_club: Saprissa (Costa Rica)
    - :position: Midfielder
      :name: Diego Calvo
      :height: 70
      :weight: 172
      :birthdate: 03-25-1991
      :birthplace: San Jose, Costa Rica
      :current_club: Valerenga (Norway)
      :lat: '9.7888222'
      :lon: "-84.301611"
    - :position: Midfielder
      :name: José Miguel Cubero
      :height: 71
      :weight: 
      :birthdate: 02-14-1987
      :birthplace: Heredia, Costa Rica
      :current_club: Herediano (Costa Rica)
      :lat: '9.9983958'
      :lon: "-84.1167057"
    - :position: Midfielder
      :name: Carlos Hernandez
      :height: 67
      :weight: 154
      :birthdate: 04-09-1982
      :birthplace: San Jose, Costa Rica
      :current_club: Wellington Phoenix (Australia)
      :lat: '9.7888222'
      :lon: "-84.301611"
    - :position: Midfielder
      :name: Ariel Rodríguez
      :height: 72
      :weight: 176
      :birthdate: 04-22-1986
      :birthplace: 
      :current_club: Alajuelense (Costa Rica)
    - :position: Midfielder
      :name: Hansell Arauz
      :height: 71
      :weight: 170
      :birthdate: 08-09-1989
      :birthplace: Golfito, Costa Rica
      :current_club: Saprissa (Costa Rica)
      :lat: '8.6464922'
      :lon: "-83.1765046"
    - :position: Forward
      :name: "Álvaro Saborío"
      :height: 72
      :weight: 170
      :birthdate: 03-25-1982
      :birthplace: San Carlos, Costa Rica
      :current_club: Real Salt Lake (USA)
      :lat: '9.2370657'
      :lon: "-83.5867932"
    - :position: Midfielder
      :name: Bryan Ruiz
      :height: 73
      :weight: 154
      :birthdate: 08-18-1985
      :birthplace: San José, Costa Rica
      :current_club: PSV Eindhoven (Netherlands)
      :lat: '9.9327307'
      :lon: "-84.0793006"
    - :position: Forward
      :name: Joel Campbell
      :height: 70
      :weight: 154
      :birthdate: 06-26-1992
      :birthplace: San José, Costa Rica
      :current_club: Olympiacos (Greece)
      :lat: '9.9327307'
      :lon: "-84.0793006"
    - :position: Midfielder
      :name: Randall Brenes
      :height: 69
      :weight: 
      :birthdate: 08-13-1983
      :birthplace: San José, Costa Rica
      :current_club: Cartagines (Costa Rica)
      :lat: '9.9327307'
      :lon: "-84.0793006"
    - :position: Forward
      :name: Marco Urena
      :height: 70
      :weight: 
      :birthdate: 03-05-1990
      :birthplace: San Jose, Costa Rica
      :current_club: Krasnodar (Russia)
      :lat: '9.7888222'
      :lon: "-84.301611"
    - :position: Forward
      :name: Jairo Arrieta
      :height: 69
      :weight: 150
      :birthdate: 08-25-1983
      :birthplace: Nicoya, Costa Rica
      :current_club: Columbus Crew (USA)
      :lat: '10.1425377'
      :lon: "-85.4535147"
  - :name: England
    :players:
    - :position: Goalkeeper
      :name: Joe Hart
      :height: 76
      :weight: 183
      :birthdate: 04-19-1987
      :birthplace: Shrewsbury, England
      :current_club: Manchester City (England)
      :lat: '52.7079067'
      :lon: "-2.7539829"
    - :position: Goalkeeper
      :name: Ben Foster
      :height: 75
      :weight: 174
      :birthdate: 04-03-1983
      :birthplace: Leamington Spa, England
      :current_club: West Bromwich Albion (England)
      :lat: '52.2921548'
      :lon: "-1.5356986"
    - :position: Goalkeeper
      :name: Fraser Forster
      :height: 79
      :weight: 
      :birthdate: 03-17-1988
      :birthplace: Hexham, England
      :current_club: Celtic (Scotland)
      :lat: '54.9710108'
      :lon: "-2.1007508"
    - :position: Defender
      :name: Leighton Baines
      :height: 67
      :weight: 154
      :birthdate: 12-11-1984
      :birthplace: Kirkby, England
      :current_club: Everton (England)
      :lat: '53.4851525'
      :lon: "-2.898906"
    - :position: Defender
      :name: Gary Cahill
      :height: 74
      :weight: 156
      :birthdate: 12-19-1985
      :birthplace: Sheffield, England
      :current_club: Chelsea (England)
      :lat: '53.3806626'
      :lon: "-1.4702278"
    - :position: Defender
      :name: Phil Jagielka
      :height: 71
      :weight: 192
      :birthdate: 08-17-1982
      :birthplace: Sale, England
      :current_club: Everton (England)
      :lat: '53.4245221'
      :lon: "-2.3183899"
    - :position: Defender
      :name: Glen Johnson
      :height: 72
      :weight: 154
      :birthdate: 08-23-1984
      :birthplace: Greenwich, England
      :current_club: Liverpool (England)
      :lat: '52.0367323'
      :lon: '1.168934'
    - :position: Defender
      :name: Phil Jones
      :height: 71
      :weight: 154
      :birthdate: 02-21-1992
      :birthplace: Preston, England
      :current_club: Manchester United (England)
      :lat: '53.7589938'
      :lon: "-2.7051618"
    - :position: Defender
      :name: Luke Shaw
      :height: 73
      :weight: 
      :birthdate: 07-12-1995
      :birthplace: Kingston, England
      :current_club: Southampton (England)
      :lat: '51.4096275'
      :lon: "-0.3062621"
    - :position: Defender
      :name: Chris Smalling
      :height: 75
      :weight: 179
      :birthdate: 11-22-1989
      :birthplace: Greenwich, England
      :current_club: Manchester United (England)
      :lat: '52.0367323'
      :lon: '1.168934'
    - :position: Midfielder
      :name: Ross Barkley
      :height: 74
      :weight: 
      :birthdate: 12-05-1993
      :birthplace: Liverpool, England
      :current_club: Everton (England)
      :lat: '53.4054719'
      :lon: "-2.9805393"
    - :position: Midfielder
      :name: Steven Gerrard
      :height: 72
      :weight: 183
      :birthdate: 05-30-1980
      :birthplace: Whiston, England
      :current_club: Liverpool (England)
      :lat: '53.4189751'
      :lon: "-2.7856123"
    - :position: Midfielder
      :name: Adam Lallana
      :height: 68
      :weight: 159
      :birthdate: 05-10-1988
      :birthplace: St. Albans, England
      :current_club: Southampton (England)
      :lat: '51.74837275'
      :lon: "-0.316501954530582"
    - :position: Midfielder
      :name: Jordan Henderson
      :height: 72
      :weight: 148
      :birthdate: 06-17-1990
      :birthplace: Sunderland, England
      :current_club: Liverpool (England)
      :lat: '54.9063791'
      :lon: "-1.375053"
    - :position: Midfielder
      :name: Frank Lampard
      :height: 72
      :weight: 194
      :birthdate: 06-20-1978
      :birthplace: Romford, England
      :current_club: Chelsea (England)
      :lat: '51.5760462'
      :lon: '0.1822646'
    - :position: Midfielder
      :name: James Milner
      :height: 69
      :weight: 154
      :birthdate: 01-04-1986
      :birthplace: Wortley, England
      :current_club: Manchester City (England)
      :lat: '51.6227322'
      :lon: "-2.3394888"
    - :position: Midfielder
      :name: Alex Oxlade-Chamberlain
      :height: 71
      :weight: 152
      :birthdate: 08-15-1993
      :birthplace: Portsmouth, England
      :current_club: Arsenal (England)
      :lat: '50.81842365'
      :lon: "-1.08087406133344"
    - :position: Midfielder
      :name: Raheem Sterling
      :height: 67
      :weight: 
      :birthdate: 12-08-1994
      :birthplace: Kingston, Jamaica
      :current_club: Liverpool (England)
      :lat: '17.9712148'
      :lon: "-76.7928128"
    - :position: Midfielder
      :name: Jack Wilshere
      :height: 67
      :weight: 132
      :birthdate: 01-01-1992
      :birthplace: Stevenage, England
      :current_club: Arsenal (England)
      :lat: '51.9035099'
      :lon: "-0.2013368"
    - :position: Forward
      :name: Rickie Lambert
      :height: 74
      :weight: 168
      :birthdate: 02-16-1982
      :birthplace: Liverpool, England
      :current_club: Southampton (England)
      :lat: '53.4054719'
      :lon: "-2.9805393"
    - :position: Forward
      :name: Wayne Rooney
      :height: 69
      :weight: 172
      :birthdate: 10-24-1985
      :birthplace: Liverpool, England
      :current_club: Manchester United (England)
      :lat: '53.4054719'
      :lon: "-2.9805393"
    - :position: Forward
      :name: Daniel Sturridg
      :height: 74
      :weight: 168
      :birthdate: 09-01-1989
      :birthplace: Birmingham, England
      :current_club: Liverpool (England)
      :lat: '52.4813679'
      :lon: "-1.8980726"
    - :position: Forward
      :name: Danny Welbeck
      :height: 73
      :weight: 161
      :birthdate: 11-26-1990
      :birthplace: Manchester, England
      :current_club: Manchester United (England)
      :lat: '53.4791466'
      :lon: "-2.2447445"
    - :position: Goalkeeper
      :name: John Ruddy
      :height: 75
      :weight: 212
      :birthdate: 10-24-1986
      :birthplace: Cambridgeshire, England
      :current_club: Norwich City (England)
      :lat: '52.333333'
      :lon: '0.083333'
    - :position: Defender
      :name: Jon Flanagan
      :height: 71
      :weight: 
      :birthdate: 01-01-1993
      :birthplace: Liverpoool, England
      :current_club: Liverpool (England)
      :lat: 
      :lon: 
    - :position: Defender
      :name: John Stones
      :height: 74
      :weight: 
      :birthdate: 05-28-1994
      :birthplace: Barnsley, England
      :current_club: Everton (England)
      :lat: '53.5527719'
      :lon: "-1.4827755"
    - :position: Midfielder
      :name: Michael Carrick
      :height: 74
      :weight: 163
      :birthdate: 07-28-1981
      :birthplace: Wallsend, England
      :current_club: Manchester United (England)
      :lat: '54.9911912'
      :lon: "-1.5342042"
    - :position: Forward
      :name: Andy Carroll
      :height: 75
      :weight: 168
      :birthdate: 01-06-1989
      :birthplace: Gateshead, England
      :current_club: West Ham United (England)
      :lat: '54.9585535'
      :lon: "-1.6057003"
    - :position: Forward
      :name: Jermain Defoe
      :height: 67
      :weight: 143
      :birthdate: 10-07-1982
      :birthplace: London, England
      :current_club: Toronto FC (USA)
      :lat: '51.5072759'
      :lon: "-0.1276597"
  - :name: Italy
    :players:
    - :position: Goalkeeper
      :name: Gianluigi Buffon
      :height: 75
      :weight: 183
      :birthdate: 01-28-1978
      :birthplace: Carrara, Italy
      :current_club: Juventus (Italy)
      :lat: '44.0791804'
      :lon: '10.1023532'
    - :position: Goalkeeper
      :name: Mattia Perin
      :height: 74
      :weight: 163
      :birthdate: 11-10-1992
      :birthplace: Latina, Italy
      :current_club: Genoa (Italy)
      :lat: '41.4672589'
      :lon: '12.9035737'
    - :position: Goalkeeper
      :name: Salvatore Sirigu
      :height: 75
      :weight: 176
      :birthdate: 01-12-1987
      :birthplace: Nuoro, Italy
      :current_club: Paris Saint-Germain (France)
      :lat: '40.3210601'
      :lon: '9.3297339'
    - :position: Defender
      :name: Ignazio Abate
      :height: 71
      :weight: 161
      :birthdate: 11-12-1986
      :birthplace: Sant Agata de Goti, Italy
      :current_club: AC Milan (Italy)
      :lat: 
      :lon: 
    - :position: Defender
      :name: Andrea Barzagli
      :height: 73
      :weight: 174
      :birthdate: 05-08-1981
      :birthplace: Fiesole, Italy
      :current_club: Juventus (Italy)
      :lat: '43.8066689'
      :lon: '11.2930735'
    - :position: Defender
      :name: Leonardo Bonucci
      :height: 75
      :weight: 181
      :birthdate: 05-01-1987
      :birthplace: Viterbo, Italy
      :current_club: Juventus (Italy)
      :lat: '42.4164974'
      :lon: '12.1039438'
    - :position: Defender
      :name: Giorgio Chiellini
      :height: 73
      :weight: 168
      :birthdate: 08-14-1984
      :birthplace: Pisa, Italy
      :current_club: Juventus (Italy)
      :lat: '43.715925'
      :lon: '10.4018984'
    - :position: Defender
      :name: Matteo Darmian
      :height: 72
      :weight: 154
      :birthdate: 12-02-1989
      :birthplace: Legnano, Italy
      :current_club: Torino (Italy)
      :lat: '45.5946985'
      :lon: '8.9183595'
    - :position: Defender
      :name: Mattia De Sciglio
      :height: 72
      :weight: 163
      :birthdate: 10-02-1992
      :birthplace: Milan, Italy
      :current_club: AC Milan (Italy)
      :lat: '45.4666211'
      :lon: '9.1906166'
    - :position: Defender
      :name: Christian Maggio
      :height: 72
      :weight: 174
      :birthdate: 02-11-1982
      :birthplace: Montecchio Maggiore, Italy
      :current_club: Napoli (Italy)
      :lat: '45.503692'
      :lon: '11.411996'
    - :position: Defender
      :name: Gabriel Paletta
      :height: 75
      :weight: 194
      :birthdate: 02-15-1986
      :birthplace: Longchamps, Argentina
      :current_club: Parma (Italy)
      :lat: "-34.85919"
      :lon: "-58.3894206"
    - :position: Defender
      :name: Manuel Pasqual
      :height: 70
      :weight: 156
      :birthdate: 03-13-1982
      :birthplace: San Dona del Piave, Italy
      :current_club: Fiorentina (Italy)
      :lat: '46.0641134'
      :lon: '11.1275896'
    - :position: Defender
      :name: Andrea Ranocchia
      :height: 77
      :weight: 179
      :birthdate: 02-16-1988
      :birthplace: Assisi, Italy
      :current_club: Inter Milan (Italy)
      :lat: '43.0711952'
      :lon: '12.6146669'
    - :position: Midfielder
      :name: Alberto Aquilani
      :height: 73
      :weight: 170
      :birthdate: 07-07-1984
      :birthplace: Rome, Italy
      :current_club: Fiorentina (Italy)
      :lat: '41.8932575'
      :lon: '12.4830619'
    - :position: Midfielder
      :name: Antonio Candreva
      :height: 71
      :weight: 159
      :birthdate: 02-28-1987
      :birthplace: Rome, Italy
      :current_club: Lazio (Italy)
      :lat: '41.8932575'
      :lon: '12.4830619'
    - :position: Midfielder
      :name: Daniele De Rossi
      :height: 73
      :weight: 183
      :birthdate: 07-24-1983
      :birthplace: Rome, Italy
      :current_club: AS Roma (Italy)
      :lat: '41.8932575'
      :lon: '12.4830619'
    - :position: Midfielder
      :name: Claudio Marchisio
      :height: 70
      :weight: 168
      :birthdate: 01-19-1986
      :birthplace: Chieri, Italy
      :current_club: Juventus (Italy)
      :lat: '45.013947'
      :lon: '7.822326'
    - :position: Midfielder
      :name: Riccardo Montolivo
      :height: 72
      :weight: 174
      :birthdate: 01-18-1985
      :birthplace: Carvaggio, Italy
      :current_club: AC Milan (Italy)
      :lat: '42.326164'
      :lon: '12.2401528'
    - :position: Midfielder
      :name: Thiago Motta
      :height: 73
      :weight: 183
      :birthdate: 08-28-1982
      :birthplace: Sao Bernardo, Brazil
      :current_club: Paris Saint-Germain (France)
      :lat: "-3.3650267"
      :lon: "-42.4224814"
    - :position: Midfielder
      :name: Marco Parolo
      :height: 73
      :weight: 181
      :birthdate: 01-25-1985
      :birthplace: Gallarte, Italy
      :current_club: Parma (Italy)
      :lat: 
      :lon: 
    - :position: Midfielder
      :name: Andrea Pirlo
      :height: 70
      :weight: 150
      :birthdate: 05-19-1979
      :birthplace: Brescia, Italy
      :current_club: Juventus (Italy)
      :lat: '45.5398347'
      :lon: '10.2195335'
    - :position: Midfielder
      :name: Romulo
      :height: 70
      :weight: 159
      :birthdate: 05-22-1987
      :birthplace: Pelotas, Brazil
      :current_club: Hellas Verona (Italy)
      :lat: "-31.771696"
      :lon: "-52.3419772"
    - :position: Midfielder
      :name: Marco Verratti
      :height: 65
      :weight: 132
      :birthdate: 11-05-1992
      :birthplace: Pescara, Italy
      :current_club: Paris Saint-Germain (France)
      :lat: '42.4643778'
      :lon: '14.2139431'
    - :position: Forward
      :name: Mario Balotelli
      :height: 74
      :weight: 194
      :birthdate: 08-12-1990
      :birthplace: Palermo, Italy
      :current_club: AC Milan (Italy)
      :lat: '38.111051'
      :lon: '13.335745'
    - :position: Forward
      :name: Antonio Cassano
      :height: 69
      :weight: 172
      :birthdate: 07-12-1982
      :birthplace: Bari, Italy
      :current_club: Parma (Italy)
      :lat: '41.1256631'
      :lon: '16.8619381'
    - :position: Forward
      :name: Alessio Cerci
      :height: 71
      :weight: 172
      :birthdate: 07-23-1987
      :birthplace: Velletri, Italy
      :current_club: Torino (Italy)
      :lat: '41.669215'
      :lon: '12.779287'
    - :position: Forward
      :name: Mattia Destro
      :height: 71
      :weight: 161
      :birthdate: 03-20-1991
      :birthplace: Ascoli, Italy
      :current_club: AS Roma (Italy)
      :lat: '42.8546936'
      :lon: '13.5863341'
    - :position: Forward
      :name: Ciro Immobile
      :height: 73
      :weight: 174
      :birthdate: 02-20-1990
      :birthplace: Torre Annunziata, Italy
      :current_club: Torino (Italy)
      :lat: '40.749709'
      :lon: '14.464636'
    - :position: Forward
      :name: Lorenzo Insigne
      :height: 64
      :weight: 129
      :birthdate: 06-04-1991
      :birthplace: Naples, Italy
      :current_club: Napoli (Italy)
      :lat: '40.8506962'
      :lon: '14.2463172'
    - :position: Forward
      :name: Giuseppe Rossi
      :height: 68
      :weight: 159
      :birthdate: 02-01-1987
      :birthplace: Teaneck, NJ, USA
      :current_club: Fiorentina (Italy)
      :lat: '40.8975992'
      :lon: "-74.0159727"
- :group: E
  :teams:
  - :name: Switzerland
    :players:
    - :position: Goalkeeper
      :name: Diego Benaglio
      :height: 76
      :weight: 196
      :birthdate: 09-08-1983
      :birthplace: Zurich, Switzerland
      :current_club: Wolfsburg (Germany)
      :lat: '47.3685586'
      :lon: '8.5404434'
    - :position: Goalkeeper
      :name: Yann Sommer
      :height: 72
      :weight: 174
      :birthdate: 12-17-1988
      :birthplace: Morges, Switzerland
      :current_club: Basel (Switzerland)
      :lat: '46.5093268'
      :lon: '6.498317'
    - :position: Goalkeeper
      :name: Roman Burki
      :height: 73
      :weight: 183
      :birthdate: 11-14-1990
      :birthplace: Munsingen, Switzerland
      :current_club: Grasshoppers (Switzerland)
      :lat: '46.8739775'
      :lon: '7.5631943'
    - :position: Defender
      :name: Johan Djourou
      :height: 75
      :weight: 192
      :birthdate: 01-18-1987
      :birthplace: Abidjan, Ivory Coast
      :current_club: Hamburg (Germany)
      :lat: '5.4091179'
      :lon: "-4.0422099"
    - :position: Defender
      :name: Michael Lang
      :height: 73
      :weight: 174
      :birthdate: 02-08-1991
      :birthplace: Sankt Gallen, Switzerland
      :current_club: Grasshoppers (Switzerland)
      :lat: '47.4250593'
      :lon: '9.3765878'
    - :position: Defender
      :name: Stephan Lichtsteiner
      :height: 71
      :weight: 170
      :birthdate: 01-16-1984
      :birthplace: Adligenswil, Switzerland
      :current_club: Juventus (Italy)
      :lat: '47.070535'
      :lon: '8.368244'
    - :position: Defender
      :name: Ricardo Rodríguez
      :height: 71
      :weight: 172
      :birthdate: 08-25-1992
      :birthplace: Zurich, Switzerland
      :current_club: Wolfsburg (Germany)
      :lat: '47.3685586'
      :lon: '8.5404434'
    - :position: Defender
      :name: Fabian Schär
      :height: 73
      :weight: 187
      :birthdate: 12-20-1991
      :birthplace: Wil, Switzerland
      :current_club: Basel (Switzerland)
      :lat: '47.4654409'
      :lon: '9.0423202'
    - :position: Defender
      :name: Philippe Senderos
      :height: 75
      :weight: 185
      :birthdate: 02-14-1985
      :birthplace: Geneva, Switzerland
      :current_club: Valencia (Spain)
      :lat: '46.2017559'
      :lon: '6.1466014'
    - :position: Defender
      :name: Steve von Bergen
      :height: 73
      :weight: 181
      :birthdate: 06-10-1983
      :birthplace: Neuchâtel, Switzerland
      :current_club: Young Boys (Switzerland)
      :lat: '46.9895435'
      :lon: '6.9292679'
    - :position: Defender
      :name: Reto Ziegler
      :height: 72
      :weight: 176
      :birthdate: 01-16-1986
      :birthplace: Geneva, Switzerland
      :current_club: Sassuolo (Italy)
      :lat: '46.2017559'
      :lon: '6.1466014'
    - :position: Midfielder
      :name: Tranquillo Barnetta
      :height: 70
      :weight: 154
      :birthdate: 05-22-1985
      :birthplace: Sankt Gallen, Switzerland
      :current_club: Eintracht Frankfurt (Germany)
      :lat: '47.4250593'
      :lon: '9.3765878'
    - :position: Midfielder
      :name: Valon Behrami
      :height: 72
      :weight: 172
      :birthdate: 04-19-1985
      :birthplace: Mitrovica, Kosovo
      :current_club: Napoli (Italy)
      :lat: '42.6547741'
      :lon: '21.1657205'
    - :position: Midfielder
      :name: Blerim Dzemaili
      :height: 70
      :weight: 161
      :birthdate: 04-12-1986
      :birthplace: Tetovo, Macedonia
      :current_club: Napoli (Italy)
      :lat: '42.0099697'
      :lon: '20.9711401'
    - :position: Midfielder
      :name: Gelson Fernandes
      :height: 72
      :weight: 154
      :birthdate: 09-02-1986
      :birthplace: Praia, Cape Verde
      :current_club: Freiburg (Germany)
      :lat: '14.9160169'
      :lon: "-23.5096132"
    - :position: Midfielder
      :name: Gökhan Inler
      :height: 72
      :weight: 176
      :birthdate: 06-27-1984
      :birthplace: Olten, Switzerland
      :current_club: Napoli (Italy)
      :lat: '47.3510234'
      :lon: '7.904306'
    - :position: Midfielder
      :name: Xherdan Shaqiri
      :height: 66
      :weight: 159
      :birthdate: 10-10-1991
      :birthplace: Gjilan, Kosovo
      :current_club: Bayern Munich (Germany)
      :lat: '42.4634051'
      :lon: '21.468409'
    - :position: Midfielder
      :name: Valentin Stocker
      :height: 71
      :weight: 161
      :birthdate: 04-12-1989
      :birthplace: Kriens, Switzerland
      :current_club: Basel (Switzerland)
      :lat: '47.0350948'
      :lon: '8.2791767'
    - :position: Midfielder
      :name: Granit Xhaka
      :height: 73
      :weight: 181
      :birthdate: 09-27-1992
      :birthplace: Basel, Switzerland
      :current_club: Borussia Monchengladbach (Germany)
      :lat: '47.5429886'
      :lon: '7.5969912'
    - :position: Forward
      :name: Josip Drmić
      :height: 72
      :weight: 154
      :birthdate: 08-08-1992
      :birthplace: Freienbach, Switzerland
      :current_club: Nurnberg (Germany)
      :lat: '47.2033168'
      :lon: '8.7605715'
    - :position: Forward
      :name: Mario Gavranovic
      :height: 69
      :weight: 150
      :birthdate: 11-24-1989
      :birthplace: Lugano, Switzerland
      :current_club: FC Zurich (Switzerland)
      :lat: '46.004971'
      :lon: '8.9520378'
    - :position: Forward
      :name: Haris Seferovic
      :height: 75
      :weight: 
      :birthdate: 02-22-1992
      :birthplace: Sursee, Switzerland
      :current_club: Real Sociedad (Spain)
      :lat: '47.1774826'
      :lon: '8.1097935'
    - :position: Forward
      :name: Admir Mehmedi
      :height: 72
      :weight: 170
      :birthdate: 03-16-1991
      :birthplace: Gostivar, Macedonia
      :current_club: Freiburg (Germany)
      :lat: '41.7942579'
      :lon: '20.9081193'
  - :name: Ecuador
    :players:
    - :position: Goalkeeper
      :name: Máximo Banguera
      :height: 74
      :weight: 192
      :birthdate: 12-16-1986
      :birthplace: Guayaquil, Ecuador
      :current_club: Barcelona (Ecuador)
      :lat: "-2.2010072"
      :lon: "-79.8818938"
    - :position: Goalkeeper
      :name: Adrián Bone
      :height: 74
      :weight: 168
      :birthdate: 09-08-1988
      :birthplace: Esmeraldas, Ecuador
      :current_club: El Nacional (Ecuador)
      :lat: '0.7343619'
      :lon: "-79.3858867"
    - :position: Goalkeeper
      :name: Alexander Domínguez
      :height: 76
      :weight: 168
      :birthdate: 06-05-1987
      :birthplace: Tachina, Ecuador
      :current_club: LDU Quito (Ecuador)
      :lat: '0.9629843'
      :lon: "-79.6284561"
    - :position: Defender
      :name: Gabriel Achilier
      :height: 71
      :weight: 183
      :birthdate: 03-24-1985
      :birthplace: 
      :current_club: Emelec (Ecuador)
    - :position: Midfielder
      :name: Walter Ayoví
      :height: 68
      :weight: 150
      :birthdate: 08-11-1979
      :birthplace: Esmeraldas, Ecuador
      :current_club: Pachuca (Mexico)
      :lat: '0.7343619'
      :lon: "-79.3858867"
    - :position: Defender
      :name: "Óscar Bagüí"
      :height: 68
      :weight: 143
      :birthdate: 12-10-1982
      :birthplace: Esmeraldas, Ecuador
      :current_club: Emelec (Ecuador)
      :lat: '0.7343619'
      :lon: "-79.3858867"
    - :position: Defender
      :name: Frickson Erazo
      :height: 71
      :weight: 141
      :birthdate: 05-05-1988
      :birthplace: Esmeraldas, Ecuador
      :current_club: Flamengo (Brazil)
      :lat: '0.7343619'
      :lon: "-79.3858867"
    - :position: Defender
      :name: Jorge Guagua
      :height: 70
      :weight: 143
      :birthdate: 09-28-1981
      :birthplace: Esmeraldas, Ecuador
      :current_club: Emelec (Ecuador)
      :lat: '0.7343619'
      :lon: "-79.3858867"
    - :position: Defender
      :name: John Narvaez
      :height: 72
      :weight: 159
      :birthdate: 06-12-1991
      :birthplace: Esmeraldas, Ecuador
      :current_club: Emelec (Ecuador)
      :lat: '0.7343619'
      :lon: "-79.3858867"
    - :position: Defender
      :name: Juan Carlos Paredes
      :height: 69
      :weight: 159
      :birthdate: 07-08-1987
      :birthplace: Esmeraldas, Ecuador
      :current_club: Barcelona (Ecuador)
      :lat: '0.7343619'
      :lon: "-79.3858867"
    - :position: Defender
      :name: Cristian Ramírez
      :height: 67
      :weight: 152
      :birthdate: 08-12-1994
      :birthplace: Santo Domingo, Ecuador
      :current_club: Fortuna Dusseldorf (Germany)
      :lat: "-1.916667"
      :lon: "-79.816667"
    - :position: Midfielder
      :name: Michael Arroyo
      :height: 70
      :weight: 159
      :birthdate: 04-23-1987
      :birthplace: Guayaquil, Ecuador
      :current_club: Atlante (Mexico)
      :lat: "-2.2010072"
      :lon: "-79.8818938"
    - :position: Midfielder
      :name: Segundo Castillo
      :height: 71
      :weight: 165
      :birthdate: 05-15-1982
      :birthplace: San Lorenzo, Ecuador
      :current_club: Al-Hilal (Saudi Arabia)
      :lat: "-1.6819378"
      :lon: "-79.0021501"
    - :position: Midfielder
      :name: Carlos Gruezo
      :height: 67
      :weight: 148
      :birthdate: 04-19-1995
      :birthplace: Guayaquil, Ecuador
      :current_club: Stuttgart (Germany)
      :lat: "-2.2010072"
      :lon: "-79.8818938"
    - :position: Midfielder
      :name: Renato Ibarra
      :height: 67
      :weight: 
      :birthdate: 01-20-1991
      :birthplace: Ambuqui, Ecuador
      :current_club: Vitesse (Netherlands)
      :lat: '0.4309879'
      :lon: "-78.0094177"
    - :position: Forward
      :name: Fidel Martínez
      :height: 69
      :weight: 159
      :birthdate: 02-15-1990
      :birthplace: Shushufindi, Ecuador
      :current_club: Club Tijuana (Mexico)
      :lat: "-0.1853134"
      :lon: "-76.6458401"
    - :position: Midfielder
      :name: "Édison Méndez"
      :height: 69
      :weight: 150
      :birthdate: 03-16-1979
      :birthplace: El Chota, Ecuador
      :current_club: Santa Fe (Colombia)
      :lat: '0.4729006'
      :lon: "-78.0651677"
    - :position: Midfielder
      :name: Oswaldo Minda
      :height: 72
      :weight: 172
      :birthdate: 07-07-1983
      :birthplace: Pasaje, Ecuador
      :current_club: Chivas USA (USA)
      :lat: "-1.18416"
      :lon: "-79.9164724"
    - :position: Midfielder
      :name: Christian Noboa
      :height: 71
      :weight: 163
      :birthdate: 04-09-1985
      :birthplace: Guayaquil, Ecuador
      :current_club: Dynamo Moscow (Russia)
      :lat: "-2.2010072"
      :lon: "-79.8818938"
    - :position: Midfielder
      :name: Pedro Quiñónez
      :height: 67
